OBJECTID,natcode,name,natLevName,countyId,countyCode,county,countyMn,regionId,regionCode,region,pop2015,Longitude,Latitude
1,153400,Năsturelu,Comuna,34,341,Teleorman,TR,3,831,Sud,"2,682",25.4639988,43.6653404
2,152314,Bujoru,Comuna,34,341,Teleorman,TR,3,831,Sud,"1,978",25.5705166,43.7268791
3,151978,Zimnicea,Oras,34,341,Teleorman,TR,3,831,Sud,"15,616",25.3719978,43.6907501
4,151709,Ciuperceni,Comuna,34,341,Teleorman,TR,3,831,Sud,"1,587",24.9537640,43.7497025
5,155118,Fântânele,Comuna,34,341,Teleorman,TR,3,831,Sud,"1,603",25.2986660,43.7243843
6,151736,Islaz,Comuna,34,341,Teleorman,TR,3,831,Sud,"5,345",24.7329063,43.7357674
7,125588,Gîrcov,Comuna,28,289,Olt,OT,4,840,Sud-Vest,"2,399",24.6191044,43.7686462
8,152234,Bragadiru,Comuna,34,341,Teleorman,TR,3,831,Sud,"3,933",25.5894947,43.7748871
9,127938,Orlea,Comuna,28,289,Olt,OT,4,840,Sud-Vest,"2,277",24.3685741,43.7556190
10,70879,Bechet,Oras,16,163,Dolj,DJ,4,840,Sud-Vest,"4,392",23.9534073,43.7718697
11,103194,Găujani,Comuna,52,528,Giurgiu,GR,3,831,Sud,"2,372",25.7059746,43.7491875
12,127251,Ianca,Comuna,28,289,Olt,OT,4,840,Sud-Vest,"3,749",24.1828461,43.7529945
13,130339,Gura Padinii,Comuna,28,289,Olt,OT,4,840,Sud-Vest,"1,738",24.3050728,43.7347488
14,153589,Pietroșani,Comuna,34,341,Teleorman,TR,3,831,Sud,"2,816",25.5627289,43.6751289
15,154460,Suhaia,Comuna,34,341,Teleorman,TR,3,831,Sud,"2,288",25.2487812,43.7391434
16,127224,Grojdibodu,Comuna,28,289,Olt,OT,4,840,Sud-Vest,"2,855",24.2292137,43.7141953
17,105909,Vedea,Comuna,52,528,Giurgiu,GR,3,831,Sud,"2,769",25.7989712,43.7695236
18,129282,Ștefan cel Mare,Comuna,28,289,Olt,OT,4,840,Sud-Vest,"1,803",24.2332611,43.8217735
19,127368,Izbiceni,Comuna,28,289,Olt,OT,4,840,Sud-Vest,"4,693",24.6443977,43.8185577
20,125542,Corabia,Oras,28,289,Olt,OT,4,840,Sud-Vest,"18,536",24.4836559,43.7936325
21,71607,Călărași,Comuna,16,163,Dolj,DJ,4,840,Sud-Vest,"5,976",24.0275497,43.7879601
22,152500,Cervenia,Comuna,34,341,Teleorman,TR,3,831,Sud,"2,983",25.5251293,43.8394585
23,179739,Malu,Comuna,52,528,Giurgiu,GR,3,831,Sud,"2,232",25.8158092,43.8269997
24,129745,Vădăstrița,Comuna,28,289,Olt,OT,4,840,Sud-Vest,"3,306",24.3407421,43.8366089
25,129629,Urzica,Comuna,28,289,Olt,OT,4,840,Sud-Vest,"2,222",24.2667866,43.8604317
26,129718,Vădastra,Comuna,28,289,Olt,OT,4,840,Sud-Vest,"1,430",24.4089813,43.8323097
27,153561,Piatra,Comuna,34,341,Teleorman,TR,3,831,Sud,"3,181",25.2140503,43.8284721
28,100549,Slobozia,Comuna,52,528,Giurgiu,GR,3,831,Sud,"2,357",25.8860893,43.8553238
29,129460,Tia Mare,Comuna,28,289,Olt,OT,4,840,Sud-Vest,"4,333",24.6208954,43.8569298
30,129898,Vișina,Comuna,28,289,Olt,OT,4,840,Sud-Vest,"2,909",24.4689579,43.8611603
31,72007,Dăbuleni,Oras,16,163,Dolj,DJ,4,840,Sud-Vest,"12,317",24.1204224,43.8242073
32,130375,Vișina Nouă,Comuna,28,289,Olt,OT,4,840,Sud-Vest,"1,770",24.3888950,43.8823433
33,152662,Crângu,Comuna,34,341,Teleorman,TR,3,831,Sud,"1,480",25.0823307,43.8488388
34,74867,Cârna,Comuna,16,163,Dolj,DJ,4,840,Sud-Vest,"1,400",23.6115780,43.8495941
35,72463,Gighera,Comuna,16,163,Dolj,DJ,4,840,Sud-Vest,"2,921",23.7825775,43.8373566
36,72980,Măceșu de Jos,Comuna,16,163,Dolj,DJ,4,840,Sud-Vest,"1,294",23.6967411,43.8636780
37,72034,Desa,Comuna,16,163,Dolj,DJ,4,840,Sud-Vest,"4,912",23.0202656,43.8472672
38,155109,Dracea,Comuna,34,341,Teleorman,TR,3,831,Sud,"1,622",25.0035839,43.8506966
39,126148,Cilieni,Comuna,28,289,Olt,OT,4,840,Sud-Vest,"3,259",24.5927086,43.8969078
40,127750,Obîrșia,Comuna,28,289,Olt,OT,4,840,Sud-Vest,"2,679",24.2935104,43.8995247
41,73996,Sadova,Comuna,16,163,Dolj,DJ,4,840,Sud-Vest,"8,673",23.9597759,43.8800812
42,72579,Gîngiova,Comuna,16,163,Dolj,DJ,4,840,Sud-Vest,"2,634",23.8615875,43.8901100
43,103309,Gogoșari,Comuna,52,528,Giurgiu,GR,3,831,Sud,"1,828",25.6676388,43.8800240
44,125962,Brastavățu,Comuna,28,289,Olt,OT,4,840,Sud-Vest,"4,570",24.4170818,43.9141273
45,70897,Bistreț,Comuna,16,163,Dolj,DJ,4,840,Sud-Vest,"4,346",23.5066090,43.8842583
46,73460,Negoi,Comuna,16,163,Dolj,DJ,4,840,Sud-Vest,"2,393",23.3636436,43.9031181
47,128588,Rusănești,Comuna,28,289,Olt,OT,4,840,Sud-Vest,"4,315",24.5607281,43.9322586
48,126077,Bucinișu,Comuna,28,289,Olt,OT,4,840,Sud-Vest,"2,021",24.2763710,43.9393730
49,72640,Goicea,Comuna,16,163,Dolj,DJ,4,840,Sud-Vest,"2,628",23.6049938,43.9302673
50,74842,Catane,Comuna,16,163,Dolj,DJ,4,840,Sud-Vest,"1,949",23.4177513,43.9088364
51,153829,Putineiu,Comuna,34,341,Teleorman,TR,3,831,Sud,"2,149",24.9615040,43.8975143
52,154344,Slobozia Mândra,Comuna,34,341,Teleorman,TR,3,831,Sud,"1,726",24.6691513,43.9213982
53,104715,Putineiu,Comuna,52,528,Giurgiu,GR,3,831,Sud,"2,352",25.7590771,43.9118652
54,71858,Ciupercenii Noi,Comuna,16,163,Dolj,DJ,4,840,Sud-Vest,"5,280",22.9403248,43.8860588
55,70637,Amărăștii de Jos,Comuna,16,163,Dolj,DJ,4,840,Sud-Vest,"5,556",24.1989899,43.9321175
56,74108,Seaca de Cîmp,Comuna,16,163,Dolj,DJ,4,840,Sud-Vest,"1,874",23.2167091,43.9416809
57,130320,Grădinile,Comuna,28,289,Olt,OT,4,840,Sud-Vest,"1,466",24.3932285,43.9457359
58,129184,Studina,Comuna,28,289,Olt,OT,4,840,Sud-Vest,"2,744",24.4408207,43.9643745
59,104519,Oinacu,Comuna,52,528,Giurgiu,GR,3,831,Sud,"3,348",26.0400925,43.9505653
60,71956,Daneți,Comuna,16,163,Dolj,DJ,4,840,Sud-Vest,"5,981",24.0492001,43.9396973
61,74883,Dobrotești,Comuna,16,163,Dolj,DJ,4,840,Sud-Vest,"1,671",24.1231537,43.9582329
62,128560,Rotunda,Comuna,28,289,Olt,OT,4,840,Sud-Vest,"2,793",24.3048153,43.9781685
63,70940,Bîrca,Comuna,16,163,Dolj,DJ,4,840,Sud-Vest,"4,092",23.6407814,43.9721222
64,73736,Poiana Mare,Comuna,16,163,Dolj,DJ,4,840,Sud-Vest,"10,785",23.0899010,43.9098969
65,128613,Scărișoara,Comuna,28,289,Olt,OT,4,840,Sud-Vest,"3,122",24.5470829,43.9753304
66,70673,Amărăștii de Sus,Comuna,16,163,Dolj,DJ,4,840,Sud-Vest,"1,655",24.1963158,43.9865761
67,151816,Nanov,Comuna,34,341,Teleorman,TR,3,831,Sud,"3,600",25.2551136,43.9604721
68,153909,Răsmirești,Comuna,34,341,Teleorman,TR,3,831,Sud,844,25.5673141,43.9906731
69,72098,Dobrești,Comuna,16,163,Dolj,DJ,4,840,Sud-Vest,"2,430",23.9411373,43.9752808
70,130026,Vlădila,Comuna,28,289,Olt,OT,4,840,Sud-Vest,"2,077",24.3849754,44.0022125
71,152332,Buzescu,Comuna,34,341,Teleorman,TR,3,831,Sud,"4,453",25.2081261,43.9755363
72,74581,Valea Stanciului,Comuna,16,163,Dolj,DJ,4,840,Sud-Vest,"5,509",23.8253365,43.9740906
73,129567,Traian,Comuna,28,289,Olt,OT,4,840,Sud-Vest,"3,115",24.4565544,44.0070305
74,103354,Gostinu,Comuna,52,528,Giurgiu,GR,3,831,Sud,"1,951",26.1174812,43.9967880
75,151790,Alexandria,Municipiu resedinta de judet,34,341,Teleorman,TR,3,831,Sud,"52,507",25.3629398,43.9756355
76,125659,Băbiciu,Comuna,28,289,Olt,OT,4,840,Sud-Vest,"2,096",24.5406151,44.0199203
77,153776,Vitănești,Comuna,34,341,Teleorman,TR,3,831,Sud,"2,830",25.4788189,44.0015907
78,70352,Calafat,"Municipiu, altul decat resedinta de judet",16,163,Dolj,DJ,4,840,Sud-Vest,"18,698",22.9701595,43.9815292
79,74554,Urzicuța,Comuna,16,163,Dolj,DJ,4,840,Sud-Vest,"3,048",23.5361004,44.0050507
80,70520,Afumați,Comuna,16,163,Dolj,DJ,4,840,Sud-Vest,"2,738",23.4449787,43.9958572
81,154996,Nenciulești,Comuna,34,341,Teleorman,TR,3,831,Sud,"2,388",25.1854343,44.0182457
82,102446,Daia,Comuna,52,528,Giurgiu,GR,3,831,Sud,"2,623",25.9759560,44.0273933
83,72533,Giurgița,Comuna,16,163,Dolj,DJ,4,840,Sud-Vest,"2,967",23.6413155,44.0141907
84,74224,Siliștea Crucii,Comuna,16,163,Dolj,DJ,4,840,Sud-Vest,"1,500",23.4804039,44.0508003
85,70316,Băilești,"Municipiu, altul decat resedinta de judet",16,163,Dolj,DJ,4,840,Sud-Vest,"20,104",23.3154640,44.0083885
86,126647,Deveselu,Comuna,28,289,Olt,OT,4,840,Sud-Vest,"3,230",24.3987904,44.0561676
87,129040,Sprîncenata,Comuna,28,289,Olt,OT,4,840,Sud-Vest,"2,537",24.6325722,44.0536385
88,153204,Mavrodin,Comuna,34,341,Teleorman,TR,3,831,Sud,"2,477",25.2629223,44.0454674
89,127144,Gostavățu,Comuna,28,289,Olt,OT,4,840,Sud-Vest,"2,878",24.5147114,44.0612411
90,128524,Redea,Comuna,28,289,Olt,OT,4,840,Sud-Vest,"2,861",24.2664146,44.0436554
91,73031,Maglavit,Comuna,16,163,Dolj,DJ,4,840,Sud-Vest,"4,810",23.1193600,44.0352936
92,101001,Băneasa,Comuna,52,528,Giurgiu,GR,3,831,Sud,"5,048",26.0761528,44.0544930
93,71698,Cerăt,Comuna,16,163,Dolj,DJ,4,840,Sud-Vest,"4,197",23.6659679,44.0654030
94,71634,Celaru,Comuna,16,163,Dolj,DJ,4,840,Sud-Vest,"4,492",24.1261024,44.0467987
95,71812,Cioroiași,Comuna,16,163,Dolj,DJ,4,840,Sud-Vest,"1,548",23.4629040,44.0853386
96,103899,Izvoarele,Comuna,52,528,Giurgiu,GR,3,831,Sud,"3,515",25.7995777,44.0314827
97,74891,Galiciuica,Comuna,16,163,Dolj,DJ,4,840,Sud-Vest,"1,384",23.4038277,44.0940056
98,72221,Drănic,Comuna,16,163,Dolj,DJ,4,840,Sud-Vest,"2,495",23.8395424,44.0590286
99,129095,Stoenești,Comuna,28,289,Olt,OT,4,840,Sud-Vest,"2,324",24.4778690,44.1003304
100,70726,Apele Vii,Comuna,16,163,Dolj,DJ,4,840,Sud-Vest,"2,118",24.0612049,44.0811195
101,72383,Galicea Mare,Comuna,16,163,Dolj,DJ,4,840,Sud-Vest,"4,164",23.3252697,44.0943069
102,73335,Moțăței,Comuna,16,163,Dolj,DJ,4,840,Sud-Vest,"7,225",23.2019787,44.0741386
103,127536,Mihăești,Comuna,28,289,Olt,OT,4,840,Sud-Vest,"1,552",24.7999649,44.1139870
104,103470,Greaca,Comuna,52,528,Giurgiu,GR,3,831,Sud,"2,345",26.3214188,44.1195259
105,125472,Caracal,"Municipiu, altul decat resedinta de judet",28,289,Olt,OT,4,840,Sud-Vest,"35,638",24.3471985,44.1097832
106,70502,Segarcea,Oras,16,163,Dolj,DJ,4,840,Sud-Vest,"8,046",23.7415905,44.0949516
107,126585,Dăneasa,Comuna,28,289,Olt,OT,4,840,Sud-Vest,"3,694",24.5803204,44.1207542
108,101724,Căscioarele,Comuna,51,519,Călărași,CL,3,831,Sud,"1,848",26.4631596,44.1342773
109,125490,Drăghiceni,Comuna,28,289,Olt,OT,4,840,Sud-Vest,"1,804",24.2554817,44.1330032
110,128472,Radomirești,Comuna,28,289,Olt,OT,4,840,Sud-Vest,"3,324",24.6885433,44.1121979
111,104118,Mihai Bravu,Comuna,52,528,Giurgiu,GR,3,831,Sud,"2,467",26.0548534,44.1277657
112,152038,Băbăița,Comuna,34,341,Teleorman,TR,3,831,Sud,"2,993",25.4188652,44.1282005
113,101804,Chirnogi,Comuna,51,519,Călărași,CL,3,831,Sud,"7,443",26.4982491,44.0795898
114,71787,Cetate,Comuna,16,163,Dolj,DJ,4,840,Sud-Vest,"5,473",23.0564270,44.1160202
115,72052,Dioști,Comuna,16,163,Dolj,DJ,4,840,Sud-Vest,"3,017",24.1883354,44.1251602
116,153865,Rădoiești,Comuna,34,341,Teleorman,TR,3,831,Sud,"2,078",25.1528206,44.1456566
117,100610,Oltenița,"Municipiu, altul decat resedinta de judet",51,519,Călărași,CL,3,831,Sud,"28,542",26.6962585,44.1025963
118,153507,Orbeasca,Comuna,34,341,Teleorman,TR,3,831,Sud,"7,577",25.3317661,44.1132927
119,105348,Stoenești,Comuna,52,528,Giurgiu,GR,3,831,Sud,"2,022",25.8978844,44.1300316
120,128864,Seaca,Comuna,28,289,Olt,OT,4,840,Sud-Vest,"1,921",24.7506161,44.1552925
121,113493,Salcia,Comuna,25,252,Mehedinți,MH,4,840,Sud-Vest,"2,875",22.9294910,44.1387520
122,179766,Isvoarele,Comuna,52,528,Giurgiu,GR,3,831,Sud,"1,544",26.2964325,44.1547470
123,103639,Hotarele,Comuna,52,528,Giurgiu,GR,3,831,Sud,"3,585",26.3809967,44.1572533
124,152172,Botoroaga,Comuna,34,341,Teleorman,TR,3,831,Sud,"5,223",25.5461540,44.1516075
125,72882,Izvoare,Comuna,16,163,Dolj,DJ,4,840,Sud-Vest,"1,613",23.3169003,44.1559639
126,126718,Dobrosloveni,Comuna,28,289,Olt,OT,4,840,Sud-Vest,"3,782",24.3614044,44.1698341
127,104975,Schitu,Comuna,52,528,Giurgiu,GR,3,831,Sud,"1,742",25.8362331,44.1513138
128,154415,Stejaru,Comuna,34,341,Teleorman,TR,3,831,Sud,"1,826",24.8581715,44.1807022
129,72506,Giubega,Comuna,16,163,Dolj,DJ,4,840,Sud-Vest,"2,067",23.4075718,44.1559105
130,103372,Gostinari,Comuna,52,528,Giurgiu,GR,3,831,Sud,"2,347",26.2322025,44.1774750
131,73594,Perișor,Comuna,16,163,Dolj,DJ,4,840,Sud-Vest,"1,711",23.5014534,44.1531906
132,71457,Calopăr,Comuna,16,163,Dolj,DJ,4,840,Sud-Vest,"3,890",23.7448425,44.1646919
133,154166,Sfințești,Comuna,34,341,Teleorman,TR,3,831,Sud,"1,176",25.1036510,44.1815414
134,74322,Teasc,Comuna,16,163,Dolj,DJ,4,840,Sud-Vest,"3,049",23.8744621,44.1735649
135,126102,Cezieni,Comuna,28,289,Olt,OT,4,840,Sud-Vest,"1,691",24.2674675,44.1835594
136,112744,Obîrșia de Cîmp,Comuna,25,252,Mehedinți,MH,4,840,Sud-Vest,"1,815",22.9877911,44.1746330
137,71518,Caraula,Comuna,16,163,Dolj,DJ,4,840,Sud-Vest,"2,528",23.2657070,44.1861954
138,125622,Drăgănești-Olt,Oras,28,289,Olt,OT,4,840,Sud-Vest,"12,144",24.5365696,44.1784401
139,153473,Olteni,Comuna,34,341,Teleorman,TR,3,831,Sud,"3,206",25.2938175,44.1973991
140,101662,Călugăreni,Comuna,52,528,Giurgiu,GR,3,831,Sud,"5,596",26.0399380,44.1849213
141,105259,Spanțov,Comuna,51,519,Călărași,CL,3,831,Sud,"4,777",26.7923336,44.1484413
142,74915,Ghindeni,Comuna,16,163,Dolj,DJ,4,840,Sud-Vest,"1,788",23.9058056,44.2150459
143,180055,Crivăț,Comuna,51,519,Călărași,CL,3,831,Sud,"2,090",26.4394646,44.1873856
144,62486,Oltina,Comuna,13,136,Constanța,CT,2,822,Sud-Est,"2,737",27.6585293,44.1560555
145,104751,Radovanu,Comuna,51,519,Călărași,CL,3,831,Sud,"4,163",26.5185909,44.1749573
146,154932,Vîrtoape,Comuna,34,341,Teleorman,TR,3,831,Sud,"2,792",25.2040367,44.1952209
147,74509,Țuglui,Comuna,16,163,Dolj,DJ,4,840,Sud-Vest,"2,923",23.8191071,44.1988068
148,152724,Didești,Comuna,34,341,Teleorman,TR,3,831,Sud,"1,229",24.8981113,44.2254372
149,105605,Ulmeni,Comuna,51,519,Călărași,CL,3,831,Sud,"5,122",26.7170506,44.1809425
150,111444,Cujmir,Comuna,25,252,Mehedinți,MH,4,840,Sud-Vest,"3,400",22.9252644,44.2060852
151,74411,Teslui,Comuna,16,163,Dolj,DJ,4,840,Sud-Vest,"2,361",24.1611938,44.2018204
152,102419,Curcani,Comuna,51,519,Călărași,CL,3,831,Sud,"5,464",26.6118965,44.2144241
153,74732,Vîrtop,Comuna,16,163,Dolj,DJ,4,840,Sud-Vest,"1,708",23.3572407,44.2084846
154,100638,Mitreni,Comuna,51,519,Călărași,CL,3,831,Sud,"4,261",26.6422653,44.1907845
155,130357,Osica de Jos,Comuna,28,289,Olt,OT,4,840,Sud-Vest,"1,572",24.2753925,44.2290268
156,126978,Fălcoiu,Comuna,28,289,Olt,OT,4,840,Sud-Vest,"3,851",24.3833275,44.2231674
157,105776,Valea Dragului,Comuna,52,528,Giurgiu,GR,3,831,Sud,"2,864",26.2972698,44.2070313
158,114079,Vrata,Comuna,25,252,Mehedinți,MH,4,840,Sud-Vest,"1,924",22.8426189,44.1878777
159,72926,Leu,Comuna,16,163,Dolj,DJ,4,840,Sud-Vest,"4,722",24.0399952,44.1927147
160,111550,Dîrvari,Comuna,25,252,Mehedinți,MH,4,840,Sud-Vest,"2,637",23.0673714,44.1995239
161,129763,Văleni,Comuna,28,289,Olt,OT,4,840,Sud-Vest,"2,762",24.7676735,44.2157364
162,127386,Izvoarele,Comuna,28,289,Olt,OT,4,840,Sud-Vest,"3,605",24.5502872,44.2450714
163,105106,Singureni,Comuna,52,528,Giurgiu,GR,3,831,Sud,"3,066",25.9478664,44.2259178
164,105384,Șoldanu,Comuna,51,519,Călărași,CL,3,831,Sud,"3,461",26.5311470,44.2342873
165,155092,Beuca,Comuna,34,341,Teleorman,TR,3,831,Sud,"1,357",24.9780922,44.2634125
166,114060,Braniștea,Comuna,25,252,Mehedinți,MH,4,840,Sud-Vest,"1,874",23.0003738,44.2437363
167,127493,Mărunței,Comuna,28,289,Olt,OT,4,840,Sud-Vest,"4,078",24.4512615,44.2318344
168,129111,Stoicănești,Comuna,28,289,Olt,OT,4,840,Sud-Vest,"2,748",24.6507797,44.2204857
169,127714,Nicolae Titulescu,Comuna,28,289,Olt,OT,4,840,Sud-Vest,"1,274",24.7401428,44.2618141
170,74750,Vîrvoru de Jos,Comuna,16,163,Dolj,DJ,4,840,Sud-Vest,"2,541",23.5965214,44.2377701
171,71885,Coșoveni,Comuna,16,163,Dolj,DJ,4,840,Sud-Vest,"3,280",23.9500618,44.2529984
172,179588,Copăceni,Comuna,23,234,Ilfov,IF,8,886,București-Ilfov,"2,638",26.0956249,44.2703857
173,111783,Gârla Mare,Comuna,25,252,Mehedinți,MH,4,840,Sud-Vest,"3,578",22.7804775,44.2255363
174,153437,Necșești,Comuna,34,341,Teleorman,TR,3,831,Sud,"1,127",25.1398945,44.2596359
175,73068,Malu Mare,Comuna,16,163,Dolj,DJ,4,840,Sud-Vest,"4,183",23.8552780,44.2563210
176,74028,Sălcuța,Comuna,16,163,Dolj,DJ,4,840,Sud-Vest,"2,186",23.4584999,44.2301178
177,127983,Osica de Sus,Comuna,28,289,Olt,OT,4,840,Sud-Vest,"4,864",24.3403072,44.2642555
178,100781,Adunații-Copăceni,Comuna,52,528,Giurgiu,GR,3,831,Sud,"6,119",26.0490665,44.2455139
179,113849,Vânători,Comuna,25,252,Mehedinți,MH,4,840,Sud-Vest,"1,933",22.8996677,44.2538605
180,104083,Luica,Comuna,51,519,Călărași,CL,3,831,Sud,"2,148",26.6370544,44.2573128
181,72150,Drăgotești,Comuna,16,163,Dolj,DJ,4,840,Sud-Vest,"2,145",24.0888920,44.2603264
182,74859,Cârcea,Comuna,16,163,Dolj,DJ,4,840,Sud-Vest,"2,202",23.8959675,44.2848053
183,151905,Videle,Oras,34,341,Teleorman,TR,3,831,Sud,"11,865",25.5531387,44.2763901
184,130311,Ghimpețeni,Comuna,28,289,Olt,OT,4,840,Sud-Vest,"1,501",24.8014336,44.2937012
185,154754,Trivalea-Moșteni,Comuna,34,341,Teleorman,TR,3,831,Sud,"2,709",25.2318230,44.2693939
186,130384,Șopârlița,Comuna,28,289,Olt,OT,4,840,Sud-Vest,"1,252",24.2754593,44.2783432
187,105829,Vasilați,Comuna,51,519,Călărași,CL,3,831,Sud,"4,410",26.4466934,44.2914276
188,126406,Crîmpoia,Comuna,28,289,Olt,OT,4,840,Sud-Vest,"3,625",24.7209511,44.2953300
189,126380,Coteana,Comuna,28,289,Olt,OT,4,840,Sud-Vest,"2,269",24.4550591,44.3008270
190,73503,Orodel,Comuna,16,163,Dolj,DJ,4,840,Sud-Vest,"2,694",23.2756710,44.2559013
191,154978,Zîmbreasca,Comuna,34,341,Teleorman,TR,3,831,Sud,"1,440",25.0147667,44.3058090
192,74359,Terpezița,Comuna,16,163,Dolj,DJ,4,840,Sud-Vest,"1,590",23.5032196,44.2991943
193,105936,Vidra,Comuna,23,234,Ilfov,IF,8,886,București-Ilfov,"8,315",26.1511459,44.2842674
194,74705,Verbița,Comuna,16,163,Dolj,DJ,4,840,Sud-Vest,"1,294",23.1780682,44.2884140
195,129987,Vîlcele,Comuna,28,289,Olt,OT,4,840,Sud-Vest,"2,402",24.5777550,44.2991943
196,92569,Călărași,Municipiu resedinta de judet,51,519,Călărași,CL,3,831,Sud,"77,997",27.3328705,44.2036057
197,74616,Vela,Comuna,16,163,Dolj,DJ,4,840,Sud-Vest,"1,898",23.3767605,44.2821198
198,93325,Dichiseni,Comuna,51,519,Călărași,CL,3,831,Sud,"1,785",27.5209846,44.2309456
199,93441,Dorobanțu,Comuna,51,519,Călărași,CL,3,831,Sud,"2,855",26.9814568,44.2268257
200,128178,Pârșcoveni,Comuna,28,289,Olt,OT,4,840,Sud-Vest,"3,057",24.2205906,44.3070526
201,94312,Roseți,Comuna,51,519,Călărași,CL,3,831,Sud,"6,496",27.4616318,44.2216454
202,73923,Robănești,Comuna,16,163,Dolj,DJ,4,840,Sud-Vest,"2,315",24.0192032,44.3055534
203,126022,Brîncoveni,Comuna,28,289,Olt,OT,4,840,Sud-Vest,"2,676",24.3203621,44.3076286
204,101984,Clejani,Comuna,52,528,Giurgiu,GR,3,831,Sud,"3,568",25.7182713,44.3134804
205,112771,Oprișor,Comuna,25,252,Mehedinți,MH,4,840,Sud-Vest,"2,290",23.0670681,44.2949448
206,130348,Ipotesti,Comuna,28,289,Olt,OT,4,840,Sud-Vest,"1,570",24.3992500,44.3200722
207,93085,Ciocănești,Comuna,51,519,Călărași,CL,3,831,Sud,"4,179",27.0607376,44.2117844
208,92587,Modelu,Comuna,51,519,Călărași,CL,3,831,Sud,"10,600",27.3965397,44.2635269
209,125846,Bîrza,Comuna,28,289,Olt,OT,4,840,Sud-Vest,"2,641",24.1993599,44.3382149
210,104323,Nana,Comuna,51,519,Călărași,CL,3,831,Sud,"2,433",26.6246052,44.3089104
211,179962,Gălbinași,Comuna,51,519,Călărași,CL,3,831,Sud,"3,645",26.4542351,44.3224297
212,112030,Gruia,Comuna,25,252,Mehedinți,MH,4,840,Sud-Vest,"3,063",22.6793556,44.2996140
213,113395,Punghina,Comuna,25,252,Mehedinți,MH,4,840,Sud-Vest,"3,230",22.9422569,44.3061447
214,129246,Șerbănești,Comuna,28,289,Olt,OT,4,840,Sud-Vest,"2,889",24.6810532,44.3281860
215,94606,Ulmu,Comuna,51,519,Călărași,CL,3,831,Sud,"1,410",26.9355316,44.3016930
216,151996,Balaci,Comuna,34,341,Teleorman,TR,3,831,Sud,"1,739",24.8954639,44.3493423
217,74931,Pleșoi,Comuna,16,163,Dolj,DJ,4,840,Sud-Vest,"1,373",23.5315075,44.3458252
218,69900,Craiova,Municipiu resedinta de judet,16,163,Dolj,DJ,4,840,Sud-Vest,"307,022",23.7895412,44.3251228
219,71260,Breasta,Comuna,16,163,Dolj,DJ,4,840,Sud-Vest,"4,187",23.6663475,44.3443375
220,71536,Carpen,Comuna,16,163,Dolj,DJ,4,840,Sud-Vest,"2,351",23.2483177,44.3332253
221,73629,Pielești,Comuna,16,163,Dolj,DJ,4,840,Sud-Vest,"3,591",23.9670048,44.3452911
222,93664,Grădiștea,Comuna,51,519,Călărași,CL,3,831,Sud,"4,784",27.1854115,44.2187691
223,94125,Alexandru Odobescu,Comuna,51,519,Călărași,CL,3,831,Sud,"2,749",27.1001740,44.2939606
224,94651,Unirea,Comuna,51,519,Călărași,CL,3,831,Sud,"2,784",27.5899696,44.2416878
225,102838,Frăsinet,Comuna,51,519,Călărași,CL,3,831,Sud,"1,753",26.8294601,44.3161507
226,129585,Tufeni,Comuna,28,289,Olt,OT,4,840,Sud-Vest,"2,855",24.7959614,44.3592720
227,112879,Pătulele,Comuna,25,252,Mehedinți,MH,4,840,Sud-Vest,"3,719",22.8057690,44.3253517
228,94580,Ștefan Vodă,Comuna,51,519,Călărași,CL,3,831,Sud,"2,378",27.3289852,44.3484383
229,127563,Milcov,Comuna,28,289,Olt,OT,4,840,Sud-Vest,"1,486",24.3868809,44.3724403
230,154228,Siliștea,Comuna,34,341,Teleorman,TR,3,831,Sud,"2,393",25.3612690,44.3751640
231,154282,Siliștea-Gumești,Comuna,34,341,Teleorman,TR,3,831,Sud,"2,546",25.0152721,44.3735847
232,74135,Seaca de Pădure,Comuna,16,163,Dolj,DJ,4,840,Sud-Vest,"1,011",23.3074036,44.3706856
233,70986,Brabova,Comuna,16,163,Dolj,DJ,4,840,Sud-Vest,"1,355",23.4313984,44.3599167
234,101378,Bucșani,Comuna,52,528,Giurgiu,GR,3,831,Sud,"3,609",25.6537895,44.3586655
235,154068,Scurtu Mare,Comuna,34,341,Teleorman,TR,3,831,Sud,"1,700",25.2749443,44.3690109
236,128105,Piatra-Olt,Oras,28,289,Olt,OT,4,840,Sud-Vest,"6,606",24.2740593,44.3648758
237,104225,Mîrșa,Comuna,52,528,Giurgiu,GR,3,831,Sud,"2,761",25.5485744,44.3597641
238,93771,Independența,Comuna,51,519,Călărași,CL,3,831,Sud,"3,545",27.1834736,44.3203392
239,93815,Jegălia,Comuna,51,519,Călărași,CL,3,831,Sud,"4,336",27.6407967,44.2966232
240,105222,Sohatu,Comuna,51,519,Călărași,CL,3,831,Sud,"2,746",26.5304947,44.3560600
241,125677,Baldovinești,Comuna,28,289,Olt,OT,4,840,Sud-Vest,"1,076",24.0465775,44.3909378
242,113929,Vlădaia,Comuna,25,252,Mehedinți,MH,4,840,Sud-Vest,"1,658",23.0197735,44.3643417
243,72409,Ghercești,Comuna,16,163,Dolj,DJ,4,840,Sud-Vest,"1,633",23.9056587,44.3563614
244,105712,Valea Argovei,Comuna,51,519,Călărași,CL,3,831,Sud,"2,502",26.7797012,44.3637466
245,104635,Plătărești,Comuna,51,519,Călărași,CL,3,831,Sud,"3,543",26.4162502,44.3605766
246,127689,Movileni,Comuna,28,289,Olt,OT,4,840,Sud-Vest,"3,462",24.6381512,44.3792648
247,70094,Ișalnița,Comuna,16,163,Dolj,DJ,4,840,Sud-Vest,"4,026",23.7306728,44.3935089
248,17398,Miroși,Comuna,3,38,Argeș,AG,3,831,Sud,"2,425",24.9328156,44.4054527
249,125873,Bobicești,Comuna,28,289,Olt,OT,4,840,Sud-Vest,"3,076",24.1545658,44.3901443
250,104485,Ogrezeni,Comuna,52,528,Giurgiu,GR,3,831,Sud,"4,734",25.7533131,44.4019928
251,73772,Predești,Comuna,16,163,Dolj,DJ,4,840,Sud-Vest,"2,101",23.6009617,44.3641167
252,103407,Grădinari,Comuna,52,528,Giurgiu,GR,3,831,Sud,"3,270",25.8105640,44.3922615
253,125374,Slătioara,Comuna,28,289,Olt,OT,4,840,Sud-Vest,"2,428",24.3269558,44.4072723
254,93281,Cuza Voda,Comuna,51,519,Călărași,CL,3,831,Sud,"3,991",27.2691135,44.2791481
255,111417,Corlățel,Comuna,25,252,Mehedinți,MH,4,840,Sud-Vest,"1,299",22.9293575,44.3795357
256,74242,Sopot,Comuna,16,163,Dolj,DJ,4,840,Sud-Vest,"1,775",23.5260067,44.3954353
257,154665,Tătărăștii de Sus,Comuna,34,341,Teleorman,TR,3,831,Sud,"3,065",25.1338043,44.4035454
258,127812,Oboga,Comuna,28,289,Olt,OT,4,840,Sud-Vest,"1,738",24.0832939,44.4207077
259,70968,Botoșești-Paia,Comuna,16,163,Dolj,DJ,4,840,Sud-Vest,724,23.2410717,44.4094200
260,72604,Gogoșu,Comuna,16,163,Dolj,DJ,4,840,Sud-Vest,629,23.3584747,44.4168777
261,93931,Lupșanu,Comuna,51,519,Călărași,CL,3,831,Sud,"3,260",26.9460278,44.3745346
262,94731,Vîlcelele,Comuna,51,519,Călărași,CL,3,831,Sud,"1,741",27.1748543,44.3925171
263,94768,Vlad Țepeș,Comuna,51,519,Călărași,CL,3,831,Sud,"2,146",27.0753345,44.3788261
264,110535,Bălăcița,Comuna,25,252,Mehedinți,MH,4,840,Sud-Vest,"2,780",23.1346207,44.3778267
265,130302,Găvănești,Comuna,28,289,Olt,OT,4,840,Sud-Vest,"1,903",24.0046787,44.4133453
266,128052,Perieți,Comuna,28,289,Olt,OT,4,840,Sud-Vest,"2,094",24.5730438,44.4190941
267,111863,Gogoșu,Comuna,25,252,Mehedinți,MH,4,840,Sud-Vest,"4,190",22.5864105,44.3687057
268,127064,Găneasa,Comuna,28,289,Olt,OT,4,840,Sud-Vest,"3,620",24.2227688,44.4336357
269,127322,Icoana,Comuna,28,289,Olt,OT,4,840,Sud-Vest,"1,833",24.7027988,44.4061584
270,112548,Jiana,Comuna,25,252,Mehedinți,MH,4,840,Sud-Vest,"4,648",22.7140064,44.3842506
271,20048,Râca,Comuna,3,38,Argeș,AG,3,831,Sud,"1,144",25.0316582,44.4299622
272,153062,Gratia,Comuna,34,341,Teleorman,TR,3,831,Sud,"2,711",25.4263268,44.4359398
273,71910,Coțofenii din Dos,Comuna,16,163,Dolj,DJ,4,840,Sud-Vest,"2,312",23.6320095,44.4129829
274,70174,Șimnicu de Sus,Comuna,16,163,Dolj,DJ,4,840,Sud-Vest,"4,587",23.8042316,44.4074097
275,104831,Roata de Jos,Comuna,52,528,Giurgiu,GR,3,831,Sud,"8,125",25.5091610,44.4128342
276,102348,Crevedia Mare,Comuna,52,528,Giurgiu,GR,3,831,Sud,"4,881",25.6247597,44.4347801
277,101190,Bolintin-Vale,Oras,52,528,Giurgiu,GR,3,831,Sud,"13,643",25.7312374,44.4434242
278,15064,Căldăraru,Comuna,3,38,Argeș,AG,3,831,Sud,"2,407",24.9365387,44.4584465
279,130295,Călui,Comuna,28,289,Olt,OT,4,840,Sud-Vest,"1,570",24.0548763,44.4552422
280,101163,Bolintin-Deal,Comuna,52,528,Giurgiu,GR,3,831,Sud,"6,235",25.8231697,44.4522362
281,153696,Poeni,Comuna,34,341,Teleorman,TR,3,831,Sud,"2,961",25.3446922,44.4266586
282,71723,Cernătești,Comuna,16,163,Dolj,DJ,4,840,Sud-Vest,"1,805",23.4530239,44.4469986
283,18162,Popești,Comuna,3,38,Argeș,AG,3,831,Sud,"2,044",25.1275654,44.4528046
284,74875,Coțofenii din Față,Comuna,16,163,Dolj,DJ,4,840,Sud-Vest,"1,969",23.6610165,44.4520416
285,104341,Nicolae Bălcescu,Comuna,51,519,Călărași,CL,3,831,Sud,"1,646",26.7557373,44.4434204
286,70566,Almăj,Comuna,16,163,Dolj,DJ,4,840,Sud-Vest,"1,923",23.7061424,44.4364243
287,72819,Grecești,Comuna,16,163,Dolj,DJ,4,840,Sud-Vest,"1,655",23.2406464,44.4547195
288,130286,Bălteni,Comuna,28,289,Olt,OT,4,840,Sud-Vest,"1,625",24.5332088,44.4636116
289,14450,Bîrla,Comuna,3,38,Argeș,AG,3,831,Sud,"4,738",24.8070107,44.4435577
290,74073,Scăești,Comuna,16,163,Dolj,DJ,4,840,Sud-Vest,"2,124",23.5481186,44.4638824
291,94492,Stelnica,Comuna,21,216,Ialomița,IL,3,831,Sud,"1,905",27.9421616,44.4028168
292,110232,Vînju Mare,Oras,25,252,Mehedinți,MH,4,840,Sud-Vest,"5,956",22.8799744,44.4220009
293,112806,Pădina,Comuna,25,252,Mehedinți,MH,4,840,Sud-Vest,"1,272",23.0199471,44.4421501
294,92701,Fetești,"Municipiu, altul decat resedinta de judet",21,216,Ialomița,IL,3,831,Sud,"35,695",27.8026848,44.3946495
295,128374,Potcoava,Oras,28,289,Olt,OT,4,840,Sud-Vest,"5,864",24.6270657,44.4727364
296,19114,Ștefan cel Mare,Comuna,3,38,Argeș,AG,3,831,Sud,"2,386",25.2462063,44.4680672
297,128221,Pleșoiu,Comuna,28,289,Olt,OT,4,840,Sud-Vest,"2,877",24.2443199,44.4758949
298,74171,Secu,Comuna,16,163,Dolj,DJ,4,840,Sud-Vest,"1,065",23.3077755,44.4748459
299,154308,Sîrbeni,Comuna,34,341,Teleorman,TR,3,831,Sud,"1,453",25.4070435,44.4846764
300,126326,Corbu,Comuna,28,289,Olt,OT,4,840,Sud-Vest,"2,286",24.7108784,44.4743576
301,103997,Joița,Comuna,52,528,Giurgiu,GR,3,831,Sud,"3,411",25.8407803,44.4965706
302,126433,Curtișoara,Comuna,28,289,Olt,OT,4,840,Sud-Vest,"4,291",24.3539524,44.4893417
303,127625,Morunglav,Comuna,28,289,Olt,OT,4,840,Sud-Vest,"2,445",24.1323032,44.4670181
304,93539,Dragoș Vodă,Comuna,51,519,Călărași,CL,3,831,Sud,"2,944",27.2052612,44.4579582
305,105455,Tămădău Mare,Comuna,51,519,Călărași,CL,3,831,Sud,"2,504",26.5842457,44.4752083
306,68887,Șelaru,Comuna,15,154,Dâmbovița,DB,3,831,Sud,"3,212",25.3114319,44.4795990
307,72677,Goiești,Comuna,16,163,Dolj,DJ,4,840,Sud-Vest,"3,067",23.7604523,44.4879570
308,103032,Fundulea,Oras,51,519,Călărași,CL,3,831,Sud,"6,793",26.5256767,44.4616852
309,105972,Vînătorii Mici,Comuna,52,528,Giurgiu,GR,3,831,Sud,"4,661",25.5472488,44.4954872
310,93851,Lehliu,Comuna,51,519,Călărași,CL,3,831,Sud,"2,635",26.8252716,44.4821091
311,179775,Săbăreni,Comuna,52,528,Giurgiu,GR,3,831,Sud,"2,561",25.8834991,44.5147896
312,16739,Izvoru,Comuna,3,38,Argeș,AG,3,831,Sud,"2,224",25.0786266,44.4942436
313,113153,Poroina Mare,Comuna,25,252,Mehedinți,MH,4,840,Sud-Vest,993,22.9574070,44.4948235
314,102794,Florești-Stoenești,Comuna,52,528,Giurgiu,GR,3,831,Sud,"8,622",25.7088909,44.4939957
315,105623,Ulmi,Comuna,52,528,Giurgiu,GR,3,831,Sud,"7,425",25.7706966,44.4992104
316,16613,Hârsești,Comuna,3,38,Argeș,AG,3,831,Sud,"2,332",24.7991753,44.5179901
317,103087,Găiseni,Comuna,52,528,Giurgiu,GR,3,831,Sud,"5,507",25.6366615,44.5065155
318,70744,Argetoaia,Comuna,16,163,Dolj,DJ,4,840,Sud-Vest,"4,632",23.3766174,44.5096512
319,129139,Strejești,Comuna,28,289,Olt,OT,4,840,Sud-Vest,"3,064",24.2532482,44.5279961
320,126166,Cîrlogani,Comuna,28,289,Olt,OT,4,840,Sud-Vest,"2,373",24.1647282,44.5166283
321,111480,Devesel,Comuna,25,252,Mehedinți,MH,4,840,Sud-Vest,"2,986",22.6787243,44.4689445
322,19560,Ungheni,Comuna,3,38,Argeș,AG,3,831,Sud,"2,858",24.9339581,44.5116234
323,71055,Brădești,Comuna,16,163,Dolj,DJ,4,840,Sud-Vest,"4,465",23.6223030,44.5090103
324,18741,Slobozia,Comuna,3,38,Argeș,AG,3,831,Sud,"4,794",25.2177811,44.5110321
325,170612,Laloșu,Comuna,38,387,Vâlcea,VL,4,840,Sud-Vest,"2,517",24.0632954,44.5350609
326,92989,Bordușani,Comuna,21,216,Ialomița,IL,3,831,Sud,"5,192",27.9381657,44.4890022
327,110946,Burila Mare,Comuna,25,252,Mehedinți,MH,4,840,Sud-Vest,"2,130",22.5568924,44.4510040
328,179793,Buești,Comuna,21,216,Ialomița,IL,3,831,Sud,"1,056",27.1850777,44.5214691
329,130366,Sârbii - Măgura,Comuna,28,289,Olt,OT,4,840,Sud-Vest,"1,928",24.6893444,44.5424843
330,101083,Belciugatele,Comuna,51,519,Călărași,CL,3,831,Sud,"2,162",26.4098778,44.4843140
331,94223,Perișoru,Comuna,51,519,Călărași,CL,3,831,Sud,"5,305",27.5266972,44.4243393
332,92783,Albești,Comuna,21,216,Ialomița,IL,3,831,Sud,"1,316",27.1104031,44.5269394
333,68431,Poiana,Comuna,15,154,Dâmbovița,DB,3,831,Sud,"3,664",25.6820278,44.5594177
334,129380,Teslui,Comuna,28,289,Olt,OT,4,840,Sud-Vest,"2,479",24.3605976,44.5527267
335,17575,Mozăceni,Comuna,3,38,Argeș,AG,3,831,Sud,"2,179",25.1812363,44.5559654
336,127171,Grădinari,Comuna,28,289,Olt,OT,4,840,Sud-Vest,"2,472",24.2905693,44.5564842
337,103764,Ileana,Comuna,51,519,Călărași,CL,3,831,Sud,"3,269",26.6925144,44.5096855
338,73102,Melinești,Comuna,16,163,Dolj,DJ,4,840,Sud-Vest,"3,995",23.6883945,44.5555305
339,169583,Făurești,Comuna,38,387,Vâlcea,VL,4,840,Sud-Vest,"1,468",24.0200691,44.5755157
340,111916,Greci,Comuna,25,252,Mehedinți,MH,4,840,Sud-Vest,"1,231",23.1159039,44.5679665
341,127901,Optași-Măgura,Comuna,28,289,Olt,OT,4,840,Sud-Vest,"1,236",24.6486015,44.5779991
342,66857,Corbii Mari,Comuna,15,154,Dâmbovița,DB,3,831,Sud,"8,071",25.4726200,44.5354271
343,102641,Drăgoești,Comuna,21,216,Ialomița,IL,3,831,Sud,953,26.5502186,44.5625153
344,112600,Livezile,Comuna,25,252,Mehedinți,MH,4,840,Sud-Vest,"1,482",22.8768883,44.5290985
345,100576,Buftea,Oras,23,234,Ilfov,IF,8,886,București-Ilfov,"21,930",25.9509926,44.5553360
346,105142,Slobozia Moară,Comuna,15,154,Dâmbovița,DB,3,831,Sud,"2,026",25.7248230,44.5970688
347,68468,Potlogi,Comuna,15,154,Dâmbovița,DB,3,831,Sud,"8,911",25.5979557,44.5702705
348,70414,Filiași,Oras,16,163,Dolj,DJ,4,840,Sud-Vest,"18,530",23.5273838,44.5589561
349,18938,Stolnici,Comuna,3,38,Argeș,AG,3,831,Sud,"3,121",24.7798424,44.5793266
350,112076,Hinova,Comuna,25,252,Mehedinți,MH,4,840,Sud-Vest,"2,864",22.7763634,44.5408173
351,174218,Voicești,Comuna,38,387,Vâlcea,VL,4,840,Sud-Vest,"1,583",24.3047314,44.5959511
352,69330,Vișina,Comuna,15,154,Dâmbovița,DB,3,831,Sud,"4,070",25.3457794,44.5722694
353,127858,Oporelu,Comuna,28,289,Olt,OT,4,840,Sud-Vest,"1,090",24.4342823,44.5839195
354,68342,Odobești,Comuna,15,154,Dâmbovița,DB,3,831,Sud,"5,119",25.5445824,44.6006012
355,94535,Sudiți,Comuna,21,216,Ialomița,IL,3,831,Sud,"2,151",27.5919266,44.5385971
356,179828,Roșiori,Comuna,21,216,Ialomița,IL,3,831,Sud,"1,988",26.5372906,44.6080894
357,73371,Murgași,Comuna,16,163,Dolj,DJ,4,840,Sud-Vest,"2,408",23.8240166,44.5527306
358,174502,Diculești,Comuna,38,387,Vâlcea,VL,4,840,Sud-Vest,"1,934",24.0058727,44.6129761
359,173748,Ștefănești,Comuna,38,387,Vâlcea,VL,4,840,Sud-Vest,"3,308",24.2313251,44.5990257
360,92872,Andrășești,Comuna,21,216,Ialomița,IL,3,831,Sud,"2,242",27.1378174,44.5856934
361,71340,Bulzești,Comuna,16,163,Dolj,DJ,4,840,Sud-Vest,"1,433",23.8753033,44.5769463
362,173793,Șușani,Comuna,38,387,Vâlcea,VL,4,840,Sud-Vest,"3,272",24.1008701,44.5979729
363,67906,Lungulețu,Comuna,15,154,Dâmbovița,DB,3,831,Sud,"5,547",25.6548653,44.6205177
364,170952,Lungești,Comuna,38,387,Vâlcea,VL,4,840,Sud-Vest,"3,166",24.1907253,44.5702248
365,101840,Ciocănești,Comuna,15,154,Dâmbovița,DB,3,831,Sud,"5,285",25.8509312,44.6181679
366,94376,Săveni,Comuna,21,216,Ialomița,IL,3,831,Sud,"3,509",27.6459923,44.5513687
367,100923,Axintele,Comuna,21,216,Ialomița,IL,3,831,Sud,"2,457",26.7773113,44.5848694
368,180000,Platonești,Comuna,21,216,Ialomița,IL,3,831,Sud,"1,938",27.7038841,44.5938110
369,67121,Costeștii din Vale,Comuna,15,154,Dâmbovița,DB,3,831,Sud,"3,552",25.4941216,44.6416702
370,94161,Perieți,Comuna,21,216,Ialomița,IL,3,831,Sud,"3,751",27.2531967,44.5876884
371,104270,Movilița,Comuna,21,216,Ialomița,IL,3,831,Sud,"2,553",26.4811077,44.6240692
372,80560,Ionești,Comuna,18,181,Gorj,GJ,4,840,Sud-Vest,"2,355",23.4372749,44.6163483
373,126228,Colonești,Comuna,28,289,Olt,OT,4,840,Sud-Vest,"1,667",24.6756287,44.6308250
374,19212,Teiu,Comuna,3,38,Argeș,AG,3,831,Sud,"1,387",25.1298103,44.6493378
375,82680,Țînțăreni,Comuna,18,181,Gorj,GJ,4,840,Sud-Vest,"5,682",23.5249462,44.6146774
376,113974,Voloiac,Comuna,25,252,Mehedinți,MH,4,840,Sud-Vest,"1,707",23.0636768,44.6330299
377,66081,Titu,Oras,15,154,Dâmbovița,DB,3,831,Sud,"10,398",25.5806980,44.6464920
378,129317,Tătulești,Comuna,28,289,Olt,OT,4,840,Sud-Vest,887,24.6046753,44.6439819
379,68253,Morteni,Comuna,15,154,Dâmbovița,DB,3,831,Sud,"2,852",25.2344799,44.6490173
380,167981,Drăgășani,"Municipiu, altul decat resedinta de judet",38,387,Vâlcea,VL,4,840,Sud-Vest,"21,159",24.2636223,44.6511993
381,101056,Bărcănești,Comuna,21,216,Ialomița,IL,3,831,Sud,"3,653",26.6557922,44.6295700
382,66152,Braniștea,Comuna,15,154,Dâmbovița,DB,3,831,Sud,"4,238",25.5809097,44.6830940
383,129816,Verguleasa,Comuna,28,289,Olt,OT,4,840,Sud-Vest,"2,809",24.3430367,44.6474571
384,68128,Mogoșani,Comuna,15,154,Dâmbovița,DB,3,831,Sud,"4,352",25.3887291,44.6772804
385,93628,Gheorghe Lazăr,Comuna,21,216,Ialomița,IL,3,831,Sud,"2,369",27.4485912,44.6387482
386,173597,Sutești,Comuna,38,387,Vâlcea,VL,4,840,Sud-Vest,"2,180",24.2058334,44.6703491
387,110116,Strehaia,Oras,25,252,Mehedinți,MH,4,840,Sud-Vest,"11,500",23.1912785,44.6282310
388,65752,Petrești,Comuna,15,154,Dâmbovița,DB,3,831,Sud,"5,658",25.3140697,44.6599998
389,168452,Bălcești,Oras,38,387,Vâlcea,VL,4,840,Sud-Vest,"5,238",23.9374256,44.6158562
390,66768,Conțești,Comuna,15,154,Dâmbovița,DB,3,831,Sud,"4,322",25.6685448,44.6796341
391,92836,Amara,Oras,21,216,Ialomița,IL,3,831,Sud,"8,022",27.3108711,44.6490250
392,171209,Mădulari,Comuna,38,387,Vâlcea,VL,4,840,Sud-Vest,"1,491",24.1031170,44.6768608
393,79237,Brănești,Comuna,18,181,Gorj,GJ,4,840,Sud-Vest,"2,323",23.4714756,44.6625710
394,93021,Bucu,Comuna,21,216,Ialomița,IL,3,831,Sud,"2,472",27.4908562,44.6193924
395,68627,Răcari,Oras,15,154,Dâmbovița,DB,3,831,Sud,"6,531",25.7560196,44.6613388
396,101564,Butimanu,Comuna,15,154,Dâmbovița,DB,3,831,Sud,"2,304",25.8782654,44.6805801
397,93067,Căzănești,Oras,21,216,Ialomița,IL,3,831,Sud,"3,583",27.0372028,44.6469955
398,93600,Gheorghe Doja,Comuna,21,216,Ialomița,IL,3,831,Sud,"2,671",27.1928082,44.6491241
399,82314,Stoina,Comuna,18,181,Gorj,GJ,4,840,Sud-Vest,"2,327",23.6334095,44.6791687
400,102749,Fierbinți-Târg,Oras,21,216,Ialomița,IL,3,831,Sud,"4,675",26.3931923,44.6687584
401,179819,Ograda,Comuna,21,216,Ialomița,IL,3,831,Sud,"2,881",27.5519943,44.6546669
402,94795,Vlădeni,Comuna,21,216,Ialomița,IL,3,831,Sud,"2,199",27.8267021,44.6139183
403,68529,Produlești,Comuna,15,154,Dâmbovița,DB,3,831,Sud,"3,457",25.5091305,44.7024956
404,112129,Husnicioara,Comuna,25,252,Mehedinți,MH,4,840,Sud-Vest,"1,297",22.8978176,44.6527405
405,103862,Ion Roată,Comuna,21,216,Ialomița,IL,3,831,Sud,"3,775",26.7786236,44.6814766
406,94456,Sfântu Gheorghe,Comuna,21,216,Ialomița,IL,3,831,Sud,"1,930",26.8591900,44.6683426
407,128301,Poboru,Comuna,28,289,Olt,OT,4,840,Sud-Vest,"2,002",24.4786758,44.6816330
408,111275,Corcova,Comuna,25,252,Mehedinți,MH,4,840,Sud-Vest,"6,100",23.0670643,44.6819000
409,169306,Crețeni,Comuna,38,387,Vâlcea,VL,4,840,Sud-Vest,"2,281",24.1917534,44.7101288
410,66697,Cojasca,Comuna,15,154,Dâmbovița,DB,3,831,Sud,"8,262",25.8465786,44.7166100
411,16944,Lunca Corbului,Comuna,3,38,Argeș,AG,3,831,Sud,"2,725",24.7560844,44.6585770
412,94107,Munteni-Buzău,Comuna,21,216,Ialomița,IL,3,831,Sud,"3,528",26.9886055,44.6694794
413,93995,Mihail Kogălniceanu,Comuna,21,216,Ialomița,IL,3,831,Sud,"3,319",27.7311344,44.6635017
414,65681,Găești,Oras,15,154,Dâmbovița,DB,3,831,Sud,"15,439",25.3124809,44.7153587
415,174511,Lăcusteni,Comuna,38,387,Vâlcea,VL,4,840,Sud-Vest,"1,434",23.8812542,44.7103386
416,19007,Suseni,Comuna,3,38,Argeș,AG,3,831,Sud,"3,065",24.9506893,44.7020035
417,125757,Bărăști,Comuna,28,289,Olt,OT,4,840,Sud-Vest,"1,429",24.6534367,44.7079163
418,170097,Ghioroiu,Comuna,38,387,Vâlcea,VL,4,840,Sud-Vest,"1,595",23.8360195,44.6779671
419,53489,Coronini,Comuna,11,118,Caraș-Severin,CS,5,859,Vest,"1,968",21.7030659,44.6780891
420,68048,Mătăsaru,Comuna,15,154,Dâmbovița,DB,3,831,Sud,"5,287",25.4452724,44.6939354
421,126503,Cungrea,Comuna,28,289,Olt,OT,4,840,Sud-Vest,"2,018",24.3973808,44.6881142
422,79157,Borăscu,Comuna,18,181,Gorj,GJ,4,840,Sud-Vest,"3,364",23.2983341,44.7029457
423,18331,Rătești,Comuna,3,38,Argeș,AG,3,831,Sud,"3,084",25.1497841,44.7086372
424,82555,Turburea,Comuna,18,181,Gorj,GJ,4,840,Sud-Vest,"4,236",23.5383053,44.6886520
425,100852,Alexeni,Comuna,21,216,Ialomița,IL,3,831,Sud,"2,412",26.7330208,44.7010269
426,13668,Costești,Oras,3,38,Argeș,AG,3,831,Sud,"10,666",24.8591461,44.6909676
427,94269,Reviga,Comuna,21,216,Ialomița,IL,3,831,Sud,"2,879",27.1233196,44.6950493
428,111097,Căzănești,Comuna,25,252,Mehedinți,MH,4,840,Sud-Vest,"2,154",22.9084091,44.7029495
429,66955,Cornățelu,Comuna,15,154,Dâmbovița,DB,3,831,Sud,"1,437",25.6804085,44.7326050
430,172457,Prundeni,Comuna,38,387,Vâlcea,VL,4,840,Sud-Vest,"4,168",24.2498055,44.7294693
431,66401,Bilciurești,Comuna,15,154,Dâmbovița,DB,3,831,Sud,"1,845",25.7920246,44.7387123
432,128962,Spineni,Comuna,28,289,Olt,OT,4,840,Sud-Vest,"1,673",24.5497627,44.7176247
433,179800,Maia,Comuna,21,216,Ialomița,IL,3,831,Sud,"1,676",26.4065399,44.7404099
434,100736,Manasia,Comuna,21,216,Ialomița,IL,3,831,Sud,"4,701",26.6944256,44.7193336
435,130231,Vulturești,Comuna,28,289,Olt,OT,4,840,Sud-Vest,"2,380",24.3101654,44.7175713
436,170444,Gușoeni,Comuna,38,387,Vâlcea,VL,4,840,Sud-Vest,"1,495",24.1252346,44.7230873
437,82779,Văgiulești,Comuna,18,181,Gorj,GJ,4,840,Sud-Vest,"2,586",23.1105289,44.7263336
438,180064,Bărbulești,Comuna,21,216,Ialomița,IL,3,831,Sud,"6,870",26.5925369,44.7326279
439,67648,Gura Șuții,Comuna,15,154,Dâmbovița,DB,3,831,Sud,"5,390",25.4861145,44.7584534
440,18581,Săpata,Comuna,3,38,Argeș,AG,3,831,Sud,"1,660",24.7461720,44.7434502
441,68789,Sălcioara,Comuna,15,154,Dâmbovița,DB,3,831,Sud,"3,926",25.5736866,44.7373810
442,82617,Turceni,Oras,18,181,Gorj,GJ,4,840,Sud-Vest,"8,218",23.3880043,44.6733246
443,171101,Măciuca,Comuna,38,387,Vâlcea,VL,4,840,Sud-Vest,"1,780",24.0491524,44.7524719
444,79077,Bolboși,Comuna,18,181,Gorj,GJ,4,840,Sud-Vest,"3,331",23.2185192,44.7343178
445,100683,Urziceni,"Municipiu, altul decat resedinta de judet",21,216,Ialomița,IL,3,831,Sud,"17,710",26.6475906,44.7376099
446,79497,Căpreni,Comuna,18,181,Gorj,GJ,4,840,Sud-Vest,"2,117",23.6040115,44.7383041
447,92907,Balaciu,Comuna,21,216,Ialomița,IL,3,831,Sud,"1,653",26.8683205,44.5886765
448,101243,Radulești,Comuna,21,216,Ialomița,IL,3,831,Sud,"1,231",26.3464336,44.7625275
449,112664,Malovăț,Comuna,25,252,Mehedinți,MH,4,840,Sud-Vest,"2,666",22.7408066,44.7198906
450,65707,Gura Foii,Comuna,15,154,Dâmbovița,DB,3,831,Sud,"2,218",25.3000278,44.7574158
451,126772,Dobroteasa,Comuna,28,289,Olt,OT,4,840,Sud-Vest,"1,628",24.3427696,44.7833519
452,17824,Oarja,Comuna,3,38,Argeș,AG,3,831,Sud,"2,853",24.9732304,44.7681007
453,94045,Miloșești,Comuna,21,216,Ialomița,IL,3,831,Sud,"2,710",27.2096081,44.7452126
454,133508,Gorgota,Comuna,29,298,Prahova,PH,3,831,Sud,"5,196",26.0801430,44.7805443
455,110063,Orșova,"Municipiu, altul decat resedinta de judet",25,252,Mehedinți,MH,4,840,Sud-Vest,"13,067",22.4135227,44.7305412
456,132226,Balta Doamnei,Comuna,29,298,Prahova,PH,3,831,Sud,"2,417",26.1783047,44.7667046
457,110875,Broșteni,Comuna,25,252,Mehedinți,MH,4,840,Sud-Vest,"2,782",22.9749317,44.7435913
458,92765,Țăndărei,Oras,21,216,Ialomița,IL,3,831,Sud,"16,843",27.6250210,44.7040672
459,136250,Olari,Comuna,29,298,Prahova,PH,3,831,Sud,"1,940",26.2062740,44.7883987
460,53853,Sichevița,Comuna,11,118,Caraș-Severin,CS,5,859,Vest,"2,170",21.8316097,44.7081108
461,94688,Valea Ciorii,Comuna,21,216,Ialomița,IL,3,831,Sud,"1,903",27.5422935,44.7330513
462,127411,Leleasca,Comuna,28,289,Olt,OT,4,840,Sud-Vest,"1,446",24.4499569,44.7709923
463,100754,Adâncata,Comuna,21,216,Ialomița,IL,3,831,Sud,"2,518",26.4885597,44.7508125
464,93209,Cocora,Comuna,21,216,Ialomița,IL,3,831,Sud,"2,132",27.0592403,44.7540550
465,93717,Grindu,Comuna,21,216,Ialomița,IL,3,831,Sud,"2,146",26.9174690,44.7590904
466,94429,Scânteia,Comuna,21,216,Ialomița,IL,3,831,Sud,"3,920",27.4536457,44.7375984
467,105794,Valea Măcrișului,Comuna,21,216,Ialomița,IL,3,831,Sud,"1,802",26.8483849,44.7526245
468,15233,Căteasca,Comuna,3,38,Argeș,AG,3,831,Sud,"3,759",25.0428200,44.7539215
469,81656,Samarinești,Comuna,18,181,Gorj,GJ,4,840,Sud-Vest,"1,797",23.0431919,44.7673264
470,179935,Perșinari,Comuna,15,154,Dâmbovița,DB,3,831,Sud,"2,841",25.4947987,44.7958107
471,133429,Gherghița,Comuna,29,298,Prahova,PH,3,831,Sud,"2,009",26.2711716,44.7893066
472,174290,Zătreni,Comuna,38,387,Vâlcea,VL,4,840,Sud-Vest,"2,359",23.8409176,44.7710800
473,69170,Valea Mare,Comuna,15,154,Dâmbovița,DB,3,831,Sud,"2,222",25.2404938,44.7918320
474,171879,Orlești,Comuna,38,387,Vâlcea,VL,4,840,Sud-Vest,"2,891",24.2305984,44.7913284
475,67167,Crîngurile,Comuna,15,154,Dâmbovița,DB,3,831,Sud,"3,426",25.2494392,44.7507706
476,100709,Ciocârlia,Comuna,21,216,Ialomița,IL,3,831,Sud,778,26.6615906,44.7950554
477,67014,Cornești,Comuna,15,154,Dâmbovița,DB,3,831,Sud,"6,313",25.8779583,44.7699013
478,103283,Gârbovi,Comuna,21,216,Ialomița,IL,3,831,Sud,"3,934",26.7729855,44.7849197
479,13276,Bradu,Comuna,3,38,Argeș,AG,3,831,Sud,"7,527",24.9135647,44.7912750
480,135431,Șirna,Comuna,29,298,Prahova,PH,3,831,Sud,"4,940",25.9523392,44.7962532
481,68280,Nucet,Comuna,15,154,Dâmbovița,DB,3,831,Sud,"4,277",25.5559044,44.7990341
482,16757,Leordeni,Comuna,3,38,Argeș,AG,3,831,Sud,"5,768",25.1599617,44.7866669
483,52909,Gîrnic,Comuna,11,118,Caraș-Severin,CS,5,859,Vest,"1,459",21.7661152,44.7641754
484,180046,Gura Ialomiței,Comuna,21,216,Ialomița,IL,3,831,Sud,"2,661",27.7220592,44.7472382
485,179971,Colelia,Comuna,21,216,Ialomița,IL,3,831,Sud,"1,174",27.0065098,44.7739677
486,82733,Urdari,Comuna,18,181,Gorj,GJ,4,840,Sud-Vest,"3,173",23.2835293,44.7973938
487,100870,Armășești,Comuna,21,216,Ialomița,IL,3,831,Sud,"2,373",26.5972767,44.7804642
488,67470,Finta,Comuna,15,154,Dâmbovița,DB,3,831,Sud,"4,174",25.7836189,44.7984085
489,113625,Șișești,Comuna,25,252,Mehedinți,MH,4,840,Sud-Vest,"2,619",22.8325062,44.7710266
490,80506,Hurezani,Comuna,18,181,Gorj,GJ,4,840,Sud-Vest,"1,680",23.6373482,44.8029823
491,173855,Tetoiu,Comuna,38,387,Vâlcea,VL,4,840,Sud-Vest,"2,473",23.9221382,44.7773323
492,173132,Stănești,Comuna,38,387,Vâlcea,VL,4,840,Sud-Vest,"1,193",24.0515747,44.8093643
493,135850,Tinosu,Comuna,29,298,Prahova,PH,3,831,Sud,"2,447",26.0128937,44.8139915
494,169547,Drăgoești,Comuna,38,387,Vâlcea,VL,4,840,Sud-Vest,"2,016",24.2982464,44.8111534
495,81264,Plopșoru,Comuna,18,181,Gorj,GJ,4,840,Sud-Vest,"6,694",23.3803387,44.7644043
496,93646,Giurgeni,Comuna,21,216,Ialomița,IL,3,831,Sud,"1,490",27.8244381,44.7348213
497,128882,Sîmburești,Comuna,28,289,Olt,OT,4,840,Sud-Vest,"1,054",24.4010143,44.8182869
498,18028,Poiana Lacului,Comuna,3,38,Argeș,AG,3,831,Sud,"6,529",24.7121792,44.8118744
499,67292,Dobra,Comuna,15,154,Dâmbovița,DB,3,831,Sud,"3,661",25.7136593,44.7912331
500,170168,Glăvile,Comuna,38,387,Vâlcea,VL,4,840,Sud-Vest,"2,003",24.1314125,44.8249016
501,78604,Aninoasa,Comuna,18,181,Gorj,GJ,4,840,Sud-Vest,"3,902",23.4761753,44.7351875
502,82047,Slivilești,Comuna,18,181,Gorj,GJ,4,840,Sud-Vest,"3,383",23.0966759,44.7919846
503,134942,Puchenii Mari,Comuna,29,298,Prahova,PH,3,831,Sud,"8,452",26.0967884,44.8244858
504,13757,Topoloveni,Oras,3,38,Argeș,AG,3,831,Sud,"9,539",25.0859432,44.8203926
505,111685,Florești,Comuna,25,252,Mehedinți,MH,4,840,Sud-Vest,"2,609",22.9058228,44.7969017
506,80249,Drăgotești,Comuna,18,181,Gorj,GJ,4,840,Sud-Vest,"2,582",23.1476974,44.8075752
507,103960,Jilavele,Comuna,21,216,Ialomița,IL,3,831,Sud,"3,516",26.5482483,44.7914505
508,66198,Băleni,Comuna,15,154,Dâmbovița,DB,3,831,Sud,"8,767",25.6553497,44.8139267
509,51056,Moldova Nouă,Oras,11,118,Caraș-Severin,CS,5,859,Vest,"13,738",21.6675663,44.7463455
510,54387,Topleț,Comuna,11,118,Caraș-Severin,CS,5,859,Vest,"2,632",22.3518677,44.7985039
511,110688,Bîlvănești,Comuna,25,252,Mehedinți,MH,4,840,Sud-Vest,941,22.6754093,44.7994576
512,80043,Dănciulești,Comuna,18,181,Gorj,GJ,4,840,Sud-Vest,"2,097",23.7583466,44.7819023
513,69250,Văcărești,Comuna,15,154,Dâmbovița,DB,3,831,Sud,"5,224",25.5076790,44.8452530
514,81816,Săulești,Comuna,18,181,Gorj,GJ,4,840,Sud-Vest,"2,284",23.4743195,44.8184013
515,135146,Sălciile,Comuna,29,298,Prahova,PH,3,831,Sud,"1,871",26.5108566,44.8325119
516,82831,Vladimir,Comuna,18,181,Gorj,GJ,4,840,Sud-Vest,"2,807",23.5562935,44.8136177
517,136241,Cocorastii Colt,Comuna,29,298,Prahova,PH,3,831,Sud,"3,005",25.8999405,44.8358994
518,66580,Cobia,Comuna,15,154,Dâmbovița,DB,3,831,Sud,"3,066",25.3361950,44.8150330
519,44435,Victoria,Comuna,9,92,Brăila,BR,2,822,Sud-Est,"3,751",27.6669292,44.7975349
520,132681,Ciorani,Comuna,29,298,Prahova,PH,3,831,Sud,"6,813",26.4175339,44.8255386
521,170872,Livezi,Comuna,38,387,Vâlcea,VL,4,840,Sud-Vest,"2,317",23.8352356,44.8381310
522,42824,Bărăganul,Comuna,9,92,Brăila,BR,2,822,Sud-Est,"3,248",27.5252094,44.8127327
523,42968,Ciocile,Comuna,9,92,Brăila,BR,2,822,Sud-Est,"2,680",27.2609119,44.8125305
524,129503,Topana,Comuna,28,289,Olt,OT,4,840,Sud-Vest,729,24.5239677,44.8418541
525,79585,Cătunele,Comuna,18,181,Gorj,GJ,4,840,Sud-Vest,"2,716",22.9355412,44.8404350
526,46910,Glodeanu-Siliștea,Comuna,10,109,Buzău,BZ,2,822,Sud-Est,"3,809",26.7799263,44.8379707
527,54163,Șopotu Nou,Comuna,11,118,Caraș-Severin,CS,5,859,Vest,"1,172",21.8565121,44.7948875
528,49439,Scutelnici,Comuna,10,109,Buzău,BZ,2,822,Sud-Est,"2,357",26.9475918,44.8339348
529,18242,Priboieni,Comuna,3,38,Argeș,AG,3,831,Sud,"3,550",25.0827904,44.8800774
530,129914,Vitomirești,Comuna,28,289,Olt,OT,4,840,Sud-Vest,"2,056",24.3720989,44.8517113
531,112263,Ilovăț,Comuna,25,252,Mehedinți,MH,4,840,Sud-Vest,"1,226",22.7391701,44.8230858
532,15554,Ciomăgești,Comuna,3,38,Argeș,AG,3,831,Sud,"1,159",24.4790268,44.8564339
533,113698,Șovarna,Comuna,25,252,Mehedinți,MH,4,840,Sud-Vest,"1,135",22.8080025,44.8484993
534,53513,Pojejena,Comuna,11,118,Caraș-Severin,CS,5,859,Vest,"2,898",21.5415211,44.8047028
535,135020,Rîfov,Comuna,29,298,Prahova,PH,3,831,Sud,"5,417",26.1947937,44.8288612
536,82243,Stejari,Comuna,18,181,Gorj,GJ,4,840,Sud-Vest,"2,427",23.6954784,44.7691231
537,78141,Motru,"Municipiu, altul decat resedinta de judet",18,181,Gorj,GJ,4,840,Sud-Vest,"23,274",22.9861126,44.8232155
538,133018,Drăgănești,Comuna,29,298,Prahova,PH,3,831,Sud,"4,940",26.3185349,44.8422890
539,80846,Mătăsari,Comuna,18,181,Gorj,GJ,4,840,Sud-Vest,"5,397",23.0603256,44.8559608
540,171806,Olanu,Comuna,38,387,Vâlcea,VL,4,840,Sud-Vest,"2,974",24.2910881,44.8680153
541,130712,Brazi,Comuna,29,298,Prahova,PH,3,831,Sud,"8,311",25.9902763,44.8626328
542,66731,Comișani,Comuna,15,154,Dâmbovița,DB,3,831,Sud,"5,236",25.5721207,44.8689957
543,43812,Roșiori,Comuna,9,92,Brăila,BR,2,822,Sud-Est,"2,795",27.3624592,44.8231735
544,172947,Scundu,Comuna,38,387,Vâlcea,VL,4,840,Sud-Vest,"2,006",24.1757851,44.8531837
545,133090,Dumbrava,Comuna,29,298,Prahova,PH,3,831,Sud,"4,472",26.2239628,44.8703690
546,66474,Bucșani,Comuna,15,154,Dâmbovița,DB,3,831,Sud,"6,914",25.6533203,44.8770790
547,170685,Lădești,Comuna,38,387,Vâlcea,VL,4,840,Sud-Vest,"1,785",24.0372009,44.8668594
548,179711,Vlădeni,Comuna,15,154,Dâmbovița,DB,3,831,Sud,"2,893",25.7861347,44.8767509
549,130552,Bărcănești,Comuna,29,298,Prahova,PH,3,831,Sud,"9,694",26.0630608,44.8796120
550,134194,Mănești,Comuna,29,298,Prahova,PH,3,831,Sud,"4,003",25.8302555,44.8557205
551,51840,Cărbunari,Comuna,11,118,Caraș-Severin,CS,5,859,Vest,996,21.7535839,44.8300667
552,65501,Ulmi,Comuna,15,154,Dâmbovița,DB,3,831,Sud,"4,360",25.4438210,44.8848877
553,46867,Glodeanu Sărat,Comuna,10,109,Buzău,BZ,2,822,Sud-Est,"4,296",26.6610012,44.8643417
554,78828,Bărbătești,Comuna,18,181,Gorj,GJ,4,840,Sud-Vest,"1,684",23.4631443,44.8896217
555,132379,Boldești-Gradiștea,Comuna,29,298,Prahova,PH,3,831,Sud,"1,781",26.5522614,44.8796806
556,170514,Ionești,Comuna,38,387,Vâlcea,VL,4,840,Sud-Vest,"4,218",24.2216053,44.8751221
557,54109,Socol,Comuna,11,118,Caraș-Severin,CS,5,859,Vest,"2,173",21.4429150,44.8455467
558,42842,Berteștii de Jos,Comuna,9,92,Brăila,BR,2,822,Sud-Est,"3,158",27.7180824,44.8484497
559,52570,Dalboșeț,Comuna,11,118,Caraș-Severin,CS,5,859,Vest,"1,698",21.9600525,44.8182487
560,67675,Hulubești,Comuna,15,154,Dâmbovița,DB,3,831,Sud,"3,284",25.2576580,44.8372154
561,130892,Tîrgșoru Vechi,Comuna,29,298,Prahova,PH,3,831,Sud,"10,126",25.9265938,44.8923569
562,14085,Băbana,Comuna,3,38,Argeș,AG,3,831,Sud,"2,876",24.7104187,44.8819618
563,172279,Pesceana,Comuna,38,387,Vâlcea,VL,4,840,Sud-Vest,"1,657",24.1220798,44.8885536
564,78454,Țicleni,Oras,18,181,Gorj,GJ,4,840,Sud-Vest,"4,861",23.3960190,44.8830566
565,48138,Padina,Comuna,10,109,Buzău,BZ,2,822,Sud-Est,"4,144",27.1278591,44.8308907
566,67407,Dragomirești,Comuna,15,154,Dâmbovița,DB,3,831,Sud,"8,777",25.3612499,44.8994522
567,15652,Cocu,Comuna,3,38,Argeș,AG,3,831,Sud,"2,349",24.6487293,44.8819504
568,80613,Jupînești,Comuna,18,181,Gorj,GJ,4,840,Sud-Vest,"2,163",23.5440693,44.9011536
569,79004,Bîlteni,Comuna,18,181,Gorj,GJ,4,840,Sud-Vest,"7,713",23.2796783,44.8820992
570,67256,Dărmănești,Comuna,15,154,Dâmbovița,DB,3,831,Sud,"4,948",25.7634277,44.9236107
571,53700,Eftimie Murgu,Comuna,11,118,Caraș-Severin,CS,5,859,Vest,"1,610",22.1351814,44.8419304
572,65342,Tîrgoviște,Municipiu resedinta de judet,15,154,Dâmbovița,DB,3,831,Sud,"94,179",25.4393826,44.9201241
573,19392,Uda,Comuna,3,38,Argeș,AG,3,831,Sud,"1,999",24.5805149,44.8800583
574,170792,Lăpușata,Comuna,38,387,Vâlcea,VL,4,840,Sud-Vest,"2,118",23.9995594,44.9169807
575,170346,Grădiștea,Comuna,38,387,Vâlcea,VL,4,840,Sud-Vest,"2,684",23.8237495,44.8889389
576,51305,Bănia,Comuna,11,118,Caraș-Severin,CS,5,859,Vest,"1,772",22.0734863,44.7962799
577,172698,Roșiile,Comuna,38,387,Vâlcea,VL,4,840,Sud-Vest,"2,555",23.9238110,44.8955193
578,172581,Roești,Comuna,38,387,Vâlcea,VL,4,840,Sud-Vest,"2,135",24.0778179,44.9160805
579,130614,Berceni,Comuna,29,298,Prahova,PH,3,831,Sud,"6,359",26.1091423,44.9178238
580,47578,Mihăilești,Comuna,10,109,Buzău,BZ,2,822,Sud-Est,"2,130",26.6797295,44.9238167
581,50564,Florica,Comuna,10,109,Buzău,BZ,2,822,Sud-Est,"1,391",26.7687931,44.9161148
582,133394,Fulga,Comuna,29,298,Prahova,PH,3,831,Sud,"3,334",26.4606781,44.9049416
583,173374,Stoilești,Comuna,38,387,Vâlcea,VL,4,840,Sud-Vest,"3,857",24.3618603,44.9149284
584,67737,I. L. Caragiale,Comuna,15,154,Dâmbovița,DB,3,831,Sud,"6,824",25.6945648,44.9137039
585,45496,Brădeanu,Comuna,10,109,Buzău,BZ,2,822,Sud-Est,"2,518",26.8534966,44.8967514
586,172992,Sinești,Comuna,38,387,Vâlcea,VL,4,840,Sud-Vest,"2,499",23.8331604,44.9357796
587,80766,Logrești,Comuna,18,181,Gorj,GJ,4,840,Sud-Vest,"2,669",23.7183876,44.8849983
588,173686,Șirineasa,Comuna,38,387,Vâlcea,VL,4,840,Sud-Vest,"2,374",24.1763954,44.9323616
589,68002,Mănești,Comuna,15,154,Dâmbovița,DB,3,831,Sud,"5,180",25.2982864,44.9504128
590,169404,Dănicei,Comuna,38,387,Vâlcea,VL,4,840,Sud-Vest,"2,070",24.4476757,44.9132843
591,131933,Albești-Paleologu,Comuna,29,298,Prahova,PH,3,831,Sud,"5,632",26.2375107,44.9269371
592,79656,Ciuperceni,Comuna,18,181,Gorj,GJ,4,840,Sud-Vest,"1,541",22.9949512,44.9182510
593,80711,Licurici,Comuna,18,181,Gorj,GJ,4,840,Sud-Vest,"2,243",23.6199512,44.8868790
594,48744,Pogoanele,Oras,10,109,Buzău,BZ,2,822,Sud-Est,"7,635",26.9888325,44.9036331
595,67595,Gura Ocniței,Comuna,15,154,Dâmbovița,DB,3,831,Sud,"7,339",25.5925426,44.9330063
596,112959,Podeni,Comuna,25,252,Mehedinți,MH,4,840,Sud-Vest,860,22.5340061,44.8912010
597,53345,Naidăș,Comuna,11,118,Caraș-Severin,CS,5,859,Vest,"1,095",21.5729828,44.8776436
598,80365,Glogova,Comuna,18,181,Gorj,GJ,4,840,Sud-Vest,"1,942",22.9138374,44.9137993
599,13301,Mioveni,Oras,3,38,Argeș,AG,3,831,Sud,"34,678",24.9461803,44.9443169
600,110296,Bala,Comuna,25,252,Mehedinți,MH,4,840,Sud-Vest,"3,878",22.8097649,44.9001694
601,15108,Călinești,Comuna,3,38,Argeș,AG,3,831,Sud,"11,175",25.0191441,44.8792076
602,168372,Băbeni,Oras,38,387,Vâlcea,VL,4,840,Sud-Vest,"9,416",24.2341022,44.9624214
603,132752,Colceag,Comuna,29,298,Prahova,PH,3,831,Sud,"4,877",26.3775063,44.9358521
604,44863,Amaru,Comuna,10,109,Buzău,BZ,2,822,Sud-Est,"2,450",26.6034317,44.9308434
605,135896,Tomșani,Comuna,29,298,Prahova,PH,3,831,Sud,"4,439",26.3050804,44.9451942
606,65431,Răzvad,Comuna,15,154,Dâmbovița,DB,3,831,Sud,"8,759",25.5139694,44.9508400
607,50923,Băile Herculane,Oras,11,118,Caraș-Severin,CS,5,859,Vest,"5,251",22.4522266,44.8883476
608,133214,Filipeștii de Tîrg,Comuna,29,298,Prahova,PH,3,831,Sud,"8,313",25.7766399,44.9565315
609,78926,Berlești,Comuna,18,181,Gorj,GJ,4,840,Sud-Vest,"2,099",23.6580620,44.9264221
610,169994,Galicea,Comuna,38,387,Vâlcea,VL,4,840,Sud-Vest,"3,901",24.2712669,44.9239769
611,65379,Aninoasa,Comuna,15,154,Dâmbovița,DB,3,831,Sud,"6,213",25.4528751,44.9740639
612,16132,Cuca,Comuna,3,38,Argeș,AG,3,831,Sud,"2,127",24.5259171,44.9517403
613,135949,Valea Călugărească,Comuna,29,298,Prahova,PH,3,831,Sud,"10,910",26.1689224,44.9510269
614,132075,Ariceștii Rahtivani,Comuna,29,298,Prahova,PH,3,831,Sud,"8,147",25.8693027,44.9490852
615,14352,Beleți-Negrești,Comuna,3,38,Argeș,AG,3,831,Sud,"1,895",25.0773239,44.9488525
616,17209,Micești,Comuna,3,38,Argeș,AG,3,831,Sud,"4,583",24.8569164,44.9736977
617,65477,Șotînga,Comuna,15,154,Dâmbovița,DB,3,831,Sud,"7,200",25.3778763,44.9763145
618,65413,Doicești,Comuna,15,154,Dâmbovița,DB,3,831,Sud,"4,776",25.4103737,44.9938431
619,78016,Drăguțești,Comuna,18,181,Gorj,GJ,4,840,Sud-Vest,"5,034",23.2485065,44.9550514
620,80123,Dănești,Comuna,18,181,Gorj,GJ,4,840,Sud-Vest,"3,694",23.3489094,44.9615173
621,65841,Moreni,"Municipiu, altul decat resedinta de judet",15,154,Dâmbovița,DB,3,831,Sud,"20,742",25.6366673,44.9855003
622,53103,Lăpușnicu Mare,Comuna,11,118,Caraș-Severin,CS,5,859,Vest,"1,716",21.8810043,44.8984032
623,47159,Largu,Comuna,10,109,Buzău,BZ,2,822,Sud-Est,"1,573",27.1451817,44.9582214
624,44328,Ulmu,Comuna,9,92,Brăila,BR,2,822,Sud-Est,"3,862",27.3038483,44.9254303
625,78329,Tîrgu Cărbunești,Oras,18,181,Gorj,GJ,4,840,Sud-Vest,"8,751",23.5044403,44.9664612
626,171628,Nicolae Bălcescu,Comuna,38,387,Vâlcea,VL,4,840,Sud-Vest,"3,412",24.4107456,44.9861450
627,79406,Bustuchin,Comuna,18,181,Gorj,GJ,4,840,Sud-Vest,"3,378",23.7162342,44.9728699
628,17101,Merișani,Comuna,3,38,Argeș,AG,3,831,Sud,"4,620",24.7286930,44.9714012
629,172377,Popești,Comuna,38,387,Vâlcea,VL,4,840,Sud-Vest,"3,010",24.1038399,44.9828758
630,130785,Bucov,Comuna,29,298,Prahova,PH,3,831,Sud,"11,174",26.0862770,44.9870682
631,68324,Ocnița,Comuna,15,154,Dâmbovița,DB,3,831,Sud,"4,455",25.5509624,44.9978676
632,133161,Filipeștii de Pădure,Comuna,29,298,Prahova,PH,3,831,Sud,"10,528",25.7217426,44.9924011
633,68921,Tătărani,Comuna,15,154,Dâmbovița,DB,3,831,Sud,"5,268",25.2684937,44.9969444
634,168602,Berbești,Oras,38,387,Vâlcea,VL,4,840,Sud-Vest,"5,648",23.8864117,44.9880180
635,47300,Luciu,Comuna,10,109,Buzău,BZ,2,822,Sud-Est,"2,874",27.0615788,44.9721756
636,131620,Urlați,Oras,29,298,Prahova,PH,3,831,Sud,"11,654",26.2548065,44.9965134
637,47774,Movila Banului,Comuna,10,109,Buzău,BZ,2,822,Sud-Est,"2,606",26.7089081,44.9721069
638,49046,Rușețu,Comuna,10,109,Buzău,BZ,2,822,Sud-Est,"3,885",27.2127800,44.9351196
639,169182,Copăceni,Comuna,38,387,Vâlcea,VL,4,840,Sud-Vest,"2,770",23.9699268,44.9871216
640,112995,Ponoarele,Comuna,25,252,Mehedinți,MH,4,840,Sud-Vest,"2,470",22.7666664,44.9716606
641,16365,Dîrmănești,Comuna,3,38,Argeș,AG,3,831,Sud,"3,577",24.8957443,45.0164490
642,49545,Smeeni,Comuna,10,109,Buzău,BZ,2,822,Sud-Est,"6,678",26.8963814,44.9844971
643,19338,Țițești,Comuna,3,38,Argeș,AG,3,831,Sud,"5,115",24.9615746,45.0002937
644,67522,Glodeni,Comuna,15,154,Dâmbovița,DB,3,831,Sud,"4,388",25.4752731,45.0202484
645,82396,Telești,Comuna,18,181,Gorj,GJ,4,840,Sud-Vest,"2,772",23.0982361,44.9926567
646,16285,Davidești,Comuna,3,38,Argeș,AG,3,831,Sud,"3,118",25.0419464,45.0083199
647,17423,Morărești,Comuna,3,38,Argeș,AG,3,831,Sud,"1,901",24.5701466,44.9872818
648,14726,Boțești,Comuna,3,38,Argeș,AG,3,831,Sud,"1,143",25.1540432,45.0117302
649,53023,Iablanița,Comuna,11,118,Caraș-Severin,CS,5,859,Vest,"2,201",22.2752819,44.9313927
650,130847,Păulești,Comuna,29,298,Prahova,PH,3,831,Sud,"5,892",25.9555340,44.9982986
651,80427,Godinești,Comuna,18,181,Gorj,GJ,4,840,Sud-Vest,"1,972",22.9692822,44.9876404
652,53274,Mehadia,Comuna,11,118,Caraș-Severin,CS,5,859,Vest,"4,155",22.3777504,44.9224129
653,78472,Albeni,Comuna,18,181,Gorj,GJ,4,840,Sud-Vest,"2,907",23.6070061,45.0174370
654,133330,Florești,Comuna,29,298,Prahova,PH,3,831,Sud,"7,915",25.8030987,45.0183220
655,131443,Plopeni,Oras,29,298,Prahova,PH,3,831,Sud,"9,168",25.9529533,45.0550957
656,171469,Milcoiu,Comuna,38,387,Vâlcea,VL,4,840,Sud-Vest,"1,238",24.4607925,45.0356178
657,169896,Frîncești,Comuna,38,387,Vâlcea,VL,4,840,Sud-Vest,"5,342",24.1581230,45.0202332
658,179640,Vulcana-Pandele,Comuna,15,154,Dâmbovița,DB,3,831,Sud,"5,122",25.3701401,45.0354919
659,133278,Fântânele,Comuna,29,298,Prahova,PH,3,831,Sud,"2,067",26.3748760,45.0152969
660,66009,Brănești,Comuna,15,154,Dâmbovița,DB,3,831,Sud,"4,354",25.4140854,45.0443993
661,46803,Gherăseni,Comuna,10,109,Buzău,BZ,2,822,Sud-Est,"3,437",26.7991371,45.0029602
662,49153,Săhăteni,Comuna,10,109,Buzău,BZ,2,822,Sud-Est,"3,428",26.5648651,45.0259171
663,51948,Ciclova Română,Comuna,11,118,Caraș-Severin,CS,5,859,Vest,"1,588",21.7376347,44.9768639
664,134390,Plopu,Comuna,29,298,Prahova,PH,3,831,Sud,"2,363",26.1507626,45.0244026
665,81861,Scoarța,Comuna,18,181,Gorj,GJ,4,840,Sud-Vest,"4,615",23.4596138,45.0288925
666,132510,Ceptura,Comuna,29,298,Prahova,PH,3,831,Sud,"4,715",26.3278503,45.0206604
667,77910,Bălești,Comuna,18,181,Gorj,GJ,4,840,Sud-Vest,"7,391",23.1757469,45.0086060
668,53675,Răcășdia,Comuna,11,118,Caraș-Severin,CS,5,859,Vest,"2,139",21.5867596,44.9977455
669,43411,Însurăței,Oras,9,92,Brăila,BR,2,822,Sud-Est,"7,165",27.6145916,44.9310188
670,130981,Băicoi,Oras,29,298,Prahova,PH,3,831,Sud,"19,236",25.8767376,45.0343895
671,51387,Berliște,Comuna,11,118,Caraș-Severin,CS,5,859,Vest,"1,282",21.4574242,44.9858131
672,81497,Roșia de Amaradia,Comuna,18,181,Gorj,GJ,4,840,Sud-Vest,"3,163",23.7514362,45.0400276
673,52115,Cornea,Comuna,11,118,Caraș-Severin,CS,5,859,Vest,"1,791",22.3272514,45.0214767
674,17913,Poienarii de Argeș,Comuna,3,38,Argeș,AG,3,831,Sud,"1,002",24.5326462,45.0633430
675,168791,Budești,Comuna,38,387,Vâlcea,VL,4,840,Sud-Vest,"5,912",24.3697205,45.0419083
676,65869,Iedera,Comuna,15,154,Dâmbovița,DB,3,831,Sud,"3,923",25.6480713,45.0431290
677,171325,Mihăești,Comuna,38,387,Vâlcea,VL,4,840,Sud-Vest,"6,766",24.2425137,45.0324593
678,133688,Gura Vadului,Comuna,29,298,Prahova,PH,3,831,Sud,"2,264",26.4394112,45.0467377
679,18778,Stîlpeni,Comuna,3,38,Argeș,AG,3,831,Sud,"5,042",25.0027084,45.0568123
680,169039,Cernișoara,Comuna,38,387,Vâlcea,VL,4,840,Sud-Vest,"3,731",24.0125675,45.0165749
681,171995,Păușești,Comuna,38,387,Vâlcea,VL,4,840,Sud-Vest,"2,678",24.1354523,45.0689163
682,66526,Cîndești,Comuna,15,154,Dâmbovița,DB,3,831,Sud,"2,820",25.1955681,45.0603676
683,109924,Baia de Aramă,Oras,25,252,Mehedinți,MH,4,840,Sud-Vest,"5,605",22.7915840,45.0139236
684,53069,Lăpușnicel,Comuna,11,118,Caraș-Severin,CS,5,859,Vest,"1,007",22.1806355,45.0048409
685,44300,Tufești,Comuna,9,92,Brăila,BR,2,822,Sud-Est,"5,267",27.7823868,44.9926643
686,46251,Cilibia,Comuna,10,109,Buzău,BZ,2,822,Sud-Est,"1,876",27.0512390,45.0441475
687,133722,Iordăcheanu,Comuna,29,298,Prahova,PH,3,831,Sud,"5,386",26.2201824,45.0516472
688,20055,Vulturești,Comuna,3,38,Argeș,AG,3,831,Sud,"2,811",25.0944271,45.0617828
689,167641,Băile Govora,Oras,38,387,Vâlcea,VL,4,840,Sud-Vest,"2,893",24.1883926,45.0815697
690,69063,Valea Lungă,Comuna,15,154,Dâmbovița,DB,3,831,Sud,"4,784",25.5704727,45.0640297
691,54573,Vrani,Comuna,11,118,Caraș-Severin,CS,5,859,Vest,"1,120",21.4828072,45.0259743
692,14165,Băiculești,Comuna,3,38,Argeș,AG,3,831,Sud,"6,157",24.6627941,45.0634956
693,171067,Mateești,Comuna,38,387,Vâlcea,VL,4,840,Sud-Vest,"3,183",23.8636398,45.0630951
694,173533,Stroești,Comuna,38,387,Vâlcea,VL,4,840,Sud-Vest,"2,774",23.9269753,45.0734177
695,77812,Tîrgu Jiu,Municipiu resedinta de judet,18,181,Gorj,GJ,4,840,Sud-Vest,"97,312",23.2930546,45.0452805
696,133615,Gornet-Cricov,Comuna,29,298,Prahova,PH,3,831,Sud,"2,317",26.2754726,45.0845909
697,81415,Prigoria,Comuna,18,181,Gorj,GJ,4,840,Sud-Vest,"3,013",23.6910992,45.0638885
698,78668,Arcani,Comuna,18,181,Gorj,GJ,4,840,Sud-Vest,"1,260",23.1348438,45.0728073
699,46484,Costești,Comuna,10,109,Buzău,BZ,2,822,Sud-Est,"4,962",26.7570171,45.0482979
700,132459,Călugăreni,Comuna,29,298,Prahova,PH,3,831,Sud,"1,218",26.3760071,45.0807953
701,179908,Pietrari,Comuna,15,154,Dâmbovița,DB,3,831,Sud,"2,405",25.2952709,45.0989075
702,49849,Țintești,Comuna,10,109,Buzău,BZ,2,822,Sud-Est,"4,564",26.8713207,45.0610962
703,132315,Bănești,Comuna,29,298,Prahova,PH,3,831,Sud,"5,645",25.7832069,45.0877953
704,132716,Cocorăștii Mislii,Comuna,29,298,Prahova,PH,3,831,Sud,"3,425",25.9193363,45.0891724
705,65921,Pucioasa,Oras,15,154,Dâmbovița,DB,3,831,Sud,"15,535",25.4509392,45.0759239
706,69447,Vîrfuri,Comuna,15,154,Dâmbovița,DB,3,831,Sud,"1,934",25.5072460,45.0945663
707,172340,Pietrari,Comuna,38,387,Vâlcea,VL,4,840,Sud-Vest,"2,990",24.1063118,45.1060562
708,15901,Coșești,Comuna,3,38,Argeș,AG,3,831,Sud,"5,311",24.8661842,45.0741119
709,45815,C.A. Rosetti,Comuna,10,109,Buzău,BZ,2,822,Sud-Est,"3,685",27.1574078,45.0465851
710,78748,Bălănești,Comuna,18,181,Gorj,GJ,4,840,Sud-Vest,"2,109",23.4317188,45.0821991
711,46769,Gălbinași,Comuna,10,109,Buzău,BZ,2,822,Sud-Est,"4,266",26.9596806,45.0546799
712,110027,Obîrșia-Cloșani,Comuna,25,252,Mehedinți,MH,4,840,Sud-Vest,"1,049",22.6538162,45.0551567
713,15493,Ciofringeni,Comuna,3,38,Argeș,AG,3,831,Sud,"2,384",24.5538654,45.1002388
714,49625,Stîlpu,Comuna,10,109,Buzău,BZ,2,822,Sud-Est,"3,148",26.7182217,45.0746117
715,135681,Tătaru,Comuna,29,298,Prahova,PH,3,831,Sud,913,26.3419170,45.0977936
716,132271,Bălțești,Comuna,29,298,Prahova,PH,3,831,Sud,"3,800",26.1174431,45.0864105
717,69526,Voinești,Comuna,15,154,Dâmbovița,DB,3,831,Sud,"6,025",25.3068409,45.0450134
718,133866,Jugureni,Comuna,29,298,Prahova,PH,3,831,Sud,555,26.4261436,45.1070824
719,171272,Măldărești,Comuna,38,387,Vâlcea,VL,4,840,Sud-Vest,"2,003",23.9901810,45.1138191
720,42771,Surdila-Greci,Comuna,9,92,Brăila,BR,2,822,Sud-Est,"1,520",27.2570934,45.0594444
721,80677,Lelești,Comuna,18,181,Gorj,GJ,4,840,Sud-Vest,"1,734",23.2037258,45.0947380
722,78873,Bengești-Ciocadia,Comuna,18,181,Gorj,GJ,4,840,Sud-Vest,"3,257",23.6081696,45.0933342
723,135164,Scorțeni,Comuna,29,298,Prahova,PH,3,831,Sud,"5,763",25.8550129,45.0971336
724,81754,Săcelu,Comuna,18,181,Gorj,GJ,4,840,Sud-Vest,"1,471",23.5402641,45.0980568
725,42753,Făurei,Oras,9,92,Brăila,BR,2,822,Sud-Est,"4,145",27.2713585,45.0894585
726,134443,Podenii Noi,Comuna,29,298,Prahova,PH,3,831,Sud,"4,858",26.1946011,45.1074600
727,52721,Domașnea,Comuna,11,118,Caraș-Severin,CS,5,859,Vest,"1,350",22.3362408,45.0886879
728,65609,Fieni,Oras,15,154,Dâmbovița,DB,3,831,Sud,"7,737",25.4063911,45.1342888
729,79362,Bumbești-Pițic,Comuna,18,181,Gorj,GJ,4,840,Sud-Vest,"2,159",23.7090549,45.1224251
730,78542,Alimpești,Comuna,18,181,Gorj,GJ,4,840,Sud-Vest,"1,848",23.7932758,45.1033096
731,132011,Apostolache,Comuna,29,298,Prahova,PH,3,831,Sud,"2,136",26.2685966,45.1273804
732,51573,Bozovici,Comuna,11,118,Caraș-Severin,CS,5,859,Vest,"3,108",21.9778309,44.9913712
733,173935,Tomșani,Comuna,38,387,Vâlcea,VL,4,840,Sud-Vest,"3,741",24.0600624,45.0967941
734,69394,Vișinești,Comuna,15,154,Dâmbovița,DB,3,831,Sud,"1,946",25.5742245,45.1232338
735,16659,Hârtiești,Comuna,3,38,Argeș,AG,3,831,Sud,"2,289",25.1200542,45.1167259
736,136198,Vîlcănești,Comuna,29,298,Prahova,PH,3,831,Sud,"3,875",25.9378471,45.1327591
737,47854,Năeni,Comuna,10,109,Buzău,BZ,2,822,Sud-Est,"1,806",26.4837837,45.0977287
738,134899,Provița de Sus,Comuna,29,298,Prahova,PH,3,831,Sud,"2,084",25.6273346,45.1395645
739,133562,Gornet,Comuna,29,298,Prahova,PH,3,831,Sud,"2,920",26.0847130,45.1295547
740,173061,Slătioara,Comuna,38,387,Vâlcea,VL,4,840,Sud-Vest,"3,394",23.8804703,45.1243286
741,170220,Golești,Comuna,38,387,Vâlcea,VL,4,840,Sud-Vest,"2,559",24.4722519,45.1091919
742,43313,Gropeni,Comuna,9,92,Brăila,BR,2,822,Sud-Est,"3,473",27.9376297,45.0447998
743,66223,Bărbulețu,Comuna,15,154,Dâmbovița,DB,3,831,Sud,"2,261",25.2959328,45.1407280
744,134336,Păcureți,Comuna,29,298,Prahova,PH,3,831,Sud,"2,116",26.1424084,45.1464119
745,17254,Mihăești,Comuna,3,38,Argeș,AG,3,831,Sud,"6,118",25.0271664,45.1258507
746,78089,Turcinești,Comuna,18,181,Gorj,GJ,4,840,Sud-Vest,"2,125",23.3001976,45.1208839
747,172082,Păusești-Măglași,Comuna,38,387,Vâlcea,VL,4,840,Sud-Vest,"4,001",24.2457848,45.1429024
748,13622,Curtea de Argeș,"Municipiu, altul decat resedinta de judet",3,38,Argeș,AG,3,831,Sud,"33,660",24.6716080,45.1370811
749,51118,Oravița,Oras,11,118,Caraș-Severin,CS,5,859,Vest,"13,528",21.7185726,45.0603447
750,67942,Malu cu Flori,Comuna,15,154,Dâmbovița,DB,3,831,Sud,"2,320",25.2265320,45.1494980
751,135789,Telega,Comuna,29,298,Prahova,PH,3,831,Sud,"5,634",25.8143215,45.1358490
752,131256,Câmpina,"Municipiu, altul decat resedinta de judet",29,298,Prahova,PH,3,831,Sud,"37,896",25.7456913,45.1429291
753,52160,Cornereva,Comuna,11,118,Caraș-Severin,CS,5,859,Vest,"2,987",22.5013084,45.0741158
754,50889,Anina,Oras,11,118,Caraș-Severin,CS,5,859,Vest,"9,427",21.8697433,45.0554276
755,179917,Râu Alb,Comuna,15,154,Dâmbovița,DB,3,831,Sud,"1,424",25.3413963,45.1525612
756,45619,Breaza,Comuna,10,109,Buzău,BZ,2,822,Sud-Est,"2,758",26.5342407,45.1110191
757,19999,Vlădești,Comuna,3,38,Argeș,AG,3,831,Sud,"3,186",24.9293194,45.1524200
758,53327,Mehadica,Comuna,11,118,Caraș-Severin,CS,5,859,Vest,719,22.1354771,45.0948486
759,135244,Sîngeru,Comuna,29,298,Prahova,PH,3,831,Sud,"5,515",26.3562851,45.1396790
760,53130,Luncavița,Comuna,11,118,Caraș-Severin,CS,5,859,Vest,"2,465",22.2343884,45.0971489
761,49019,Robeasca,Comuna,10,109,Buzău,BZ,2,822,Sud-Est,"1,109",27.1364231,45.1314850
762,132841,Cosminele,Comuna,29,298,Prahova,PH,3,831,Sud,"1,042",25.8807564,45.1677666
763,48487,Pietroasele,Comuna,10,109,Buzău,BZ,2,822,Sud-Est,"3,328",26.5922146,45.0936279
764,47453,Merei,Comuna,10,109,Buzău,BZ,2,822,Sud-Est,"6,853",26.6691208,45.1320572
765,19249,Tigveni,Comuna,3,38,Argeș,AG,3,831,Sud,"3,481",24.5619812,45.1559029
766,44818,Buzău,Municipiu resedinta de judet,10,109,Buzău,BZ,2,822,Sud-Est,"136,710",26.8171177,45.1386108
767,49073,Săgeata,Comuna,10,109,Buzău,BZ,2,822,Sud-Est,"4,850",27.0277367,45.1244850
768,66438,Buciumeni,Comuna,15,154,Dâmbovița,DB,3,831,Sud,"4,559",25.4636440,45.1659546
769,17851,Pietroșani,Comuna,3,38,Argeș,AG,3,831,Sud,"5,696",24.8474541,45.1546631
770,54500,Vărădia,Comuna,11,118,Caraș-Severin,CS,5,859,Vest,"1,440",21.5200958,45.0872765
771,131835,Gura Vitioarei,Comuna,29,298,Prahova,PH,3,831,Sud,"6,104",26.0316372,45.1526108
772,133919,Lapoș,Comuna,29,298,Prahova,PH,3,831,Sud,"1,222",26.4314938,45.1570511
773,136134,Vărbilău,Comuna,29,298,Prahova,PH,3,831,Sud,"6,921",25.9546814,45.1799850
774,14673,Boteni,Comuna,3,38,Argeș,AG,3,831,Sud,"2,457",25.1307068,45.1769180
775,168880,Bujoreni,Comuna,38,387,Vâlcea,VL,4,840,Sud-Vest,"4,864",24.3512611,45.1620674
776,131899,Adunați,Comuna,29,298,Prahova,PH,3,831,Sud,"2,109",25.5895710,45.1840973
777,135404,Surani,Comuna,29,298,Prahova,PH,3,831,Sud,"1,869",26.1683121,45.1910057
778,69303,Văleni-Dîmbovița,Comuna,15,154,Dâmbovița,DB,3,831,Sud,"2,643",25.1695271,45.1650581
779,52035,Ciudanovița,Comuna,11,118,Caraș-Severin,CS,5,859,Vest,689,21.7653828,45.1360168
780,44177,Tichilești,Comuna,9,92,Brăila,BR,2,822,Sud-Est,"3,738",27.8934326,45.1433907
781,132645,Chiojdeanca,Comuna,29,298,Prahova,PH,3,831,Sud,"1,633",26.2754993,45.1718941
782,18670,Schitu Golești,Comuna,3,38,Argeș,AG,3,831,Sud,"5,072",25.0255814,45.1857605
783,135501,Șoimari,Comuna,29,298,Prahova,PH,3,831,Sud,"3,144",26.2112331,45.1701736
784,131817,Vălenii de Munte,Oras,29,298,Prahova,PH,3,831,Sud,"13,628",26.0524063,45.1913834
785,53577,Prigor,Comuna,11,118,Caraș-Severin,CS,5,859,Vest,"2,504",22.1213741,44.9637985
786,15402,Cetățeni,Comuna,3,38,Argeș,AG,3,831,Sud,"3,017",25.2145119,45.1935692
787,66330,Bezdead,Comuna,15,154,Dâmbovița,DB,3,831,Sud,"4,595",25.5133095,45.1499329
788,19695,Valea Iașului,Comuna,3,38,Argeș,AG,3,831,Sud,"2,768",24.7088642,45.1920586
789,52990,Grădinari,Comuna,11,118,Caraș-Severin,CS,5,859,Vest,"2,063",21.5915318,45.1108894
790,135128,Salcia,Comuna,29,298,Prahova,PH,3,831,Sud,"1,075",26.3281441,45.1886749
791,49956,Vadu Pașii,Comuna,10,109,Buzău,BZ,2,822,Sud-Est,"9,702",26.9107513,45.1683121
792,19631,Valea Danului,Comuna,3,38,Argeș,AG,3,831,Sud,"3,021",24.6212635,45.1868134
793,169351,Dăești,Comuna,38,387,Vâlcea,VL,4,840,Sud-Vest,"3,061",24.4045391,45.1817970
794,134755,Predeal-Sărari,Comuna,29,298,Prahova,PH,3,831,Sud,"2,343",26.1096840,45.1909180
795,131988,Aluniș,Comuna,29,298,Prahova,PH,3,831,Sud,"3,431",25.8595047,45.2052345
796,43466,Jirlău,Comuna,9,92,Brăila,BR,2,822,Sud-Est,"3,224",27.2002449,45.1481056
797,16454,Domnești,Comuna,3,38,Argeș,AG,3,831,Sud,"3,174",24.8450565,45.2098579
798,17968,Poienarii de Muscel,Comuna,3,38,Argeș,AG,3,831,Sud,"3,450",25.0696545,45.1985741
799,68565,Pucheni,Comuna,15,154,Dâmbovița,DB,3,831,Sud,"1,879",25.2889538,45.1965218
800,172812,Runcu,Comuna,38,387,Vâlcea,VL,4,840,Sud-Vest,966,24.4603558,45.1877403
801,15313,Cepari,Comuna,3,38,Argeș,AG,3,831,Sud,"2,264",24.5275974,45.2118530
802,168559,Bărbătești,Comuna,38,387,Vâlcea,VL,4,840,Sud-Vest,"3,423",24.1085796,45.1745644
803,47373,Mărăcineni,Comuna,10,109,Buzău,BZ,2,822,Sud-Est,"8,702",26.8084164,45.2000809
804,135547,Șotrile,Comuna,29,298,Prahova,PH,3,831,Sud,"3,366",25.7176285,45.2122307
805,132137,Ariceștii Zeletin,Comuna,29,298,Prahova,PH,3,831,Sud,"1,252",26.1565170,45.2255058
806,68404,Pietroșița,Comuna,15,154,Dâmbovița,DB,3,831,Sud,"3,203",25.4273071,45.1911392
807,17334,Mioarele,Comuna,3,38,Argeș,AG,3,831,Sud,"1,605",25.1105328,45.2337875
808,135654,Talea,Comuna,29,298,Prahova,PH,3,831,Sud,"1,062",25.5574646,45.2223282
809,46377,Cochirleanca,Comuna,10,109,Buzău,BZ,2,822,Sud-Est,"5,533",27.0267582,45.2055664
810,132486,Cărbunești,Comuna,29,298,Prahova,PH,3,831,Sud,"1,741",26.2098866,45.2282333
811,132404,Brebu,Comuna,29,298,Prahova,PH,3,831,Sud,"7,218",25.7807159,45.2063942
812,135725,Teișani,Comuna,29,298,Prahova,PH,3,831,Sud,"3,723",26.0062943,45.2268639
813,49643,Tisău,Comuna,10,109,Buzău,BZ,2,822,Sud-Est,"4,644",26.5556812,45.1984558
814,16551,Godeni,Comuna,3,38,Argeș,AG,3,831,Sud,"3,032",24.9798050,45.2107010
815,52954,Goruia,Comuna,11,118,Caraș-Severin,CS,5,859,Vest,809,21.7759590,45.1935883
816,46313,Cislău,Comuna,10,109,Buzău,BZ,2,822,Sud-Est,"4,792",26.3848667,45.2130394
817,49206,Săpoca,Comuna,10,109,Buzău,BZ,2,822,Sud-Est,"3,437",26.7703800,45.2310104
818,19141,Șuici,Comuna,3,38,Argeș,AG,3,831,Sud,"2,486",24.5388088,45.2460518
819,171539,Muereasca,Comuna,38,387,Vâlcea,VL,4,840,Sud-Vest,"2,629",24.2803936,45.2168503
820,131577,Slănic,Oras,29,298,Prahova,PH,3,831,Sud,"6,029",25.9437485,45.2394104
821,81184,Peștișani,Comuna,18,181,Gorj,GJ,4,840,Sud-Vest,"3,817",23.0171566,45.1421547
822,13819,Albeștii de Argeș,Comuna,3,38,Argeș,AG,3,831,Sud,"6,013",24.6800117,45.2290764
823,43652,Movila Miresii,Comuna,9,92,Brăila,BR,2,822,Sud-Est,"4,265",27.6144428,45.2089157
824,81095,Padeș,Comuna,18,181,Gorj,GJ,4,840,Sud-Vest,"4,935",22.7442360,45.1513214
825,50102,Vernești,Comuna,10,109,Buzău,BZ,2,822,Sud-Est,"9,046",26.6906738,45.2165298
826,51804,Carașova,Comuna,11,118,Caraș-Severin,CS,5,859,Vest,"2,998",21.9056816,45.1839561
827,68716,Runcu,Comuna,15,154,Dâmbovița,DB,3,831,Sud,"4,464",25.3173695,45.2647285
828,14922,Bughea de Jos,Comuna,3,38,Argeș,AG,3,831,Sud,"3,071",24.9950962,45.2753410
829,44140,Șuțești,Comuna,9,92,Brăila,BR,2,822,Sud-Est,"4,701",27.4747734,45.2293091
830,54305,Ticvaniu Mare,Comuna,11,118,Caraș-Severin,CS,5,859,Vest,"2,008",21.6485386,45.1718636
831,45753,Calvini,Comuna,10,109,Buzău,BZ,2,822,Sud-Est,"4,760",26.2876244,45.2445183
832,44257,Tudor Vladimirescu,Comuna,9,92,Brăila,BR,2,822,Sud-Est,"2,159",27.7661591,45.2300911
833,47337,Măgura,Comuna,10,109,Buzău,BZ,2,822,Sud-Est,"2,189",26.5674400,45.2614861
834,44989,Bălăceanu,Comuna,10,109,Buzău,BZ,2,822,Sud-Est,"1,668",27.1345692,45.2473412
835,15448,Cicănești,Comuna,3,38,Argeș,AG,3,831,Sud,"2,131",24.6012840,45.2663651
836,50549,Unguriu,Comuna,10,109,Buzău,BZ,2,822,Sud-Est,"2,332",26.6265812,45.2724571
837,43117,Frecăței,Comuna,9,92,Brăila,BR,2,822,Sud-Est,"1,427",28.0796356,45.0150833
838,50326,Viperești,Comuna,10,109,Buzău,BZ,2,822,Sud-Est,"3,552",26.4599781,45.2436218
839,51243,Armeniș,Comuna,11,118,Caraș-Severin,CS,5,859,Vest,"2,466",22.4186096,45.2138214
840,48771,Poșta Cîlnău,Comuna,10,109,Buzău,BZ,2,822,Sud-Est,"6,135",26.9046764,45.2366371
841,81987,Schela,Comuna,18,181,Gorj,GJ,4,840,Sud-Vest,"1,753",23.3080425,45.2087708
842,132896,Drajna,Comuna,29,298,Prahova,PH,3,831,Sud,"5,431",26.0771275,45.2537689
843,13999,Aninoasa,Comuna,3,38,Argeș,AG,3,831,Sud,"3,341",24.8930092,45.2388458
844,82136,Stănești,Comuna,18,181,Gorj,GJ,4,840,Sud-Vest,"2,258",23.2490425,45.1948662
845,168041,Horezu,Oras,38,387,Vâlcea,VL,4,840,Sud-Vest,"7,098",23.9717636,45.2220268
846,131336,Comarnic,Oras,29,298,Prahova,PH,3,831,Sud,"12,560",25.6148987,45.2676010
847,167909,Călimănești,Oras,38,387,Vâlcea,VL,4,840,Sud-Vest,"8,909",24.3061543,45.2644157
848,43493,Mărașu,Comuna,9,92,Brăila,BR,2,822,Sud-Est,"2,942",27.9663887,44.8593712
849,15830,Corbi,Comuna,3,38,Argeș,AG,3,831,Sud,"4,116",24.8241234,45.2704582
850,168675,Berislăvești,Comuna,38,387,Vâlcea,VL,4,840,Sud-Vest,"2,767",24.4418430,45.2828598
851,54270,Teregova,Comuna,11,118,Caraș-Severin,CS,5,859,Vest,"4,117",22.4722271,45.1645584
852,174021,Vaideeni,Comuna,38,387,Vâlcea,VL,4,840,Sud-Vest,"4,023",23.8803043,45.2338371
853,54056,Slatina-Timiș,Comuna,11,118,Caraș-Severin,CS,5,859,Vest,"3,035",22.2549229,45.2390480
854,172894,Sălătrucel,Comuna,38,387,Vâlcea,VL,4,840,Sud-Vest,"2,154",24.3774548,45.2806664
855,134648,Posești,Comuna,29,298,Prahova,PH,3,831,Sud,"3,965",26.1518116,45.2783470
856,44560,Cazasu,Comuna,9,92,Brăila,BR,2,822,Sud-Est,"3,344",27.8785477,45.2691536
857,132342,Bertea,Comuna,29,298,Prahova,PH,3,831,Sud,"3,218",25.8344212,45.2594528
858,80908,Mușetești,Comuna,18,181,Gorj,GJ,4,840,Sud-Vest,"1,982",23.4632263,45.1974030
859,135618,Ștefești,Comuna,29,298,Prahova,PH,3,831,Sud,"2,394",25.8690529,45.2789421
860,18858,Stoenești,Comuna,3,38,Argeș,AG,3,831,Sud,"4,631",25.2301006,45.2702065
861,15741,Corbeni,Comuna,3,38,Argeș,AG,3,831,Sud,"5,885",24.6647186,45.2913551
862,14753,Brăduleț,Comuna,3,38,Argeș,AG,3,831,Sud,"1,826",24.7509193,45.2941093
863,50479,Ziduri,Comuna,10,109,Buzău,BZ,2,822,Sud-Est,"4,456",27.0613441,45.2615089
864,79308,Bumbești-Jiu,Oras,18,181,Gorj,GJ,4,840,Sud-Vest,"10,182",23.3865204,45.2261963
865,43242,Gemenele,Comuna,9,92,Brăila,BR,2,822,Sud-Est,"1,867",27.6377831,45.2808266
866,45334,Blăjani,Comuna,10,109,Buzău,BZ,2,822,Sud-Est,"1,069",26.8178501,45.2975426
867,46830,Ghergheasa,Comuna,10,109,Buzău,BZ,2,822,Sud-Est,"2,316",27.1873055,45.2861748
868,46019,Cernătești,Comuna,10,109,Buzău,BZ,2,822,Sud-Est,"3,737",26.7682304,45.2945824
869,81380,Polovragi,Comuna,18,181,Gorj,GJ,4,840,Sud-Vest,"2,782",23.8343754,45.1678925
870,79834,Crasna,Comuna,18,181,Gorj,GJ,4,840,Sud-Vest,"4,927",23.5545101,45.2234077
871,48557,Pîrscov,Comuna,10,109,Buzău,BZ,2,822,Sud-Est,"5,653",26.5354767,45.2958031
872,53167,Lupac,Comuna,11,118,Caraș-Severin,CS,5,859,Vest,"2,671",21.8139668,45.2630348
873,45101,Berca,Comuna,10,109,Buzău,BZ,2,822,Sud-Est,"8,903",26.6703568,45.3065414
874,43732,Rîmnicelu,Comuna,9,92,Brăila,BR,2,822,Sud-Est,"2,033",27.5335884,45.2819290
875,52696,Dognecea,Comuna,11,118,Caraș-Severin,CS,5,859,Vest,"2,141",21.7354050,45.2646828
876,133795,Izvoarele,Comuna,29,298,Prahova,PH,3,831,Sud,"6,738",25.9383259,45.2949142
877,135226,Secăria,Comuna,29,298,Prahova,PH,3,831,Sud,"1,237",25.6658745,45.3073654
878,46554,Cozieni,Comuna,10,109,Buzău,BZ,2,822,Sud-Est,"2,040",26.4923000,45.3366623
879,44934,Balta Albă,Comuna,10,109,Buzău,BZ,2,822,Sud-Est,"2,549",27.3590469,45.2964668
880,45361,Boldu,Comuna,10,109,Buzău,BZ,2,822,Sud-Est,"2,284",27.2466354,45.2982025
881,157781,Moravița,Comuna,35,350,Timiș,TM,5,859,Vest,"2,707",21.2729549,45.2773323
882,48325,Pătârlagele,Oras,10,109,Buzău,BZ,2,822,Sud-Est,"7,858",26.3404579,45.3255234
883,131540,Sinaia,Oras,29,298,Prahova,PH,3,831,Sud,"11,749",25.5490055,45.3374100
884,50415,Zărnești,Comuna,10,109,Buzău,BZ,2,822,Sud-Est,"5,118",26.9071159,45.2924538
885,48922,Racovițeni,Comuna,10,109,Buzău,BZ,2,822,Sud-Est,"1,339",26.9187717,45.3422623
886,50022,Valea Rîmnicului,Comuna,10,109,Buzău,BZ,2,822,Sud-Est,"5,710",27.0376301,45.3348808
887,160047,Ceatalchioi,Comuna,36,369,Tulcea,TL,2,822,Sud-Est,673,28.8183823,45.2747726
888,43698,Racoviță,Comuna,9,92,Brăila,BR,2,822,Sud-Est,"1,139",27.4505100,45.3244019
889,51546,Bolvașnița,Comuna,11,118,Caraș-Severin,CS,5,859,Vest,"1,405",22.3575191,45.3164749
890,54350,Tîrnova,Comuna,11,118,Caraș-Severin,CS,5,859,Vest,"1,685",21.9992752,45.3315010
891,50987,Ocna de Fier,Comuna,11,118,Caraș-Severin,CS,5,859,Vest,734,21.7696571,45.3420067
892,16472,Dragoslavele,Comuna,3,38,Argeș,AG,3,831,Sud,"2,656",25.2318897,45.3522682
893,14405,Berevoești,Comuna,3,38,Argeș,AG,3,831,Sud,"3,508",24.9070339,45.3182144
894,50790,Reșița,Municipiu resedinta de judet,11,118,Caraș-Severin,CS,5,859,Vest,"89,559",21.8803978,45.3177414
895,87219,Aninoasa,Oras,20,207,Hunedoara,HD,5,859,Vest,"4,805",23.3392715,45.3751221
896,45888,Cănești,Comuna,10,109,Buzău,BZ,2,822,Sud-Est,833,26.6088772,45.3977013
897,68182,Moroeni,Comuna,15,154,Dâmbovița,DB,3,831,Sud,"5,159",25.4280930,45.3096848
898,48021,Odăile,Comuna,10,109,Buzău,BZ,2,822,Sud-Est,857,26.5483379,45.3868065
899,136278,Bătrâni,Comuna,29,298,Prahova,PH,3,831,Sud,"2,109",26.1239090,45.3320045
900,46439,Colți,Comuna,10,109,Buzău,BZ,2,822,Sud-Est,"1,084",26.4015045,45.4011383
901,87175,Vulcan,"Municipiu, altul decat resedinta de judet",20,207,Hunedoara,HD,5,859,Vest,"29,264",23.2785873,45.3657494
902,48968,Rîmnicelu,Comuna,10,109,Buzău,BZ,2,822,Sud-Est,"4,831",27.1353302,45.3662605
903,45003,Beceni,Comuna,10,109,Buzău,BZ,2,822,Sud-Est,"4,465",26.7894878,45.3797493
904,47818,Murgești,Comuna,10,109,Buzău,BZ,2,822,Sud-Est,922,26.8819561,45.3971634
905,174496,Titești,Comuna,38,387,Vâlcea,VL,4,840,Sud-Vest,833,24.4046955,45.4146271
906,172509,Racovița,Comuna,38,387,Vâlcea,VL,4,840,Sud-Vest,"1,830",24.3137512,45.4035110
907,47006,Grebănu,Comuna,10,109,Buzău,BZ,2,822,Sud-Est,"5,447",26.9622326,45.3708534
908,13891,Albeștii de Muscel,Comuna,3,38,Argeș,AG,3,831,Sud,"1,604",24.9601460,45.3692513
909,44391,Vădeni,Comuna,9,92,Brăila,BR,2,822,Sud-Est,"4,132",27.9285202,45.3542747
910,45389,Bozioru,Comuna,10,109,Buzău,BZ,2,822,Sud-Est,"1,090",26.4714737,45.3838387
911,156669,Denta,Comuna,35,350,Timiș,TM,5,859,Vest,"3,179",21.2606640,45.3501053
912,49313,Scorțoasa,Comuna,10,109,Buzău,BZ,2,822,Sud-Est,"2,866",26.6717796,45.3831863
913,54412,Turnu Ruieni,Comuna,11,118,Caraș-Severin,CS,5,859,Vest,"3,483",22.3827133,45.3795700
914,47417,Mărgăritești,Comuna,10,109,Buzău,BZ,2,822,Sud-Est,667,26.8546848,45.4257736
915,136107,Valea Doftanei,Comuna,29,298,Prahova,PH,3,831,Sud,"6,729",25.7469845,45.3751755
916,53425,Păltiniș,Comuna,11,118,Caraș-Severin,CS,5,859,Vest,"2,446",22.1170959,45.3958855
917,51626,Brebu,Comuna,11,118,Caraș-Severin,CS,5,859,Vest,"1,158",22.0146446,45.4018860
918,46108,Chiliile,Comuna,10,109,Buzău,BZ,2,822,Sud-Est,585,26.5889454,45.4426537
919,155458,Deta,Oras,35,350,Timiș,TM,5,859,Vest,"7,640",21.2200108,45.4008598
920,13524,Valea Mare Pravăț,Comuna,3,38,Argeș,AG,3,831,Sud,"4,311",25.1114044,45.3383179
921,48165,Pardoși,Comuna,10,109,Buzău,BZ,2,822,Sud-Est,412,26.8736382,45.4512939
922,45539,Brăești,Comuna,10,109,Buzău,BZ,2,822,Sud-Est,"2,488",26.4993458,45.4412384
923,47916,Nehoiu,Oras,10,109,Buzău,BZ,2,822,Sud-Est,"11,345",26.3078251,45.4168129
924,130954,Azuga,Oras,29,298,Prahova,PH,3,831,Sud,"4,891",25.6272488,45.4517441
925,50969,Bocșa,Oras,11,118,Caraș-Severin,CS,5,859,Vest,"19,162",21.7943268,45.4032402
926,52758,Ezeriș,Comuna,11,118,Caraș-Severin,CS,5,859,Vest,"1,315",21.9033604,45.3990440
927,175590,Ciorăști,Comuna,39,396,Vrancea,VN,2,822,Sud-Est,"3,098",27.3382912,45.4221306
928,16908,Lerești,Comuna,3,38,Argeș,AG,3,831,Sud,"4,664",25.0365620,45.4235458
929,132574,Cerașu,Comuna,29,298,Prahova,PH,3,831,Sud,"4,692",26.0481682,45.4004326
930,51010,Caransebeș,"Municipiu, altul decat resedinta de judet",11,118,Caraș-Severin,CS,5,859,Vest,"30,725",22.2146111,45.4210396
931,40991,Fundata,Comuna,8,83,Brașov,BV,7,877,Centru,790,25.2788353,45.4369125
932,160458,Grindu,Comuna,36,369,Tulcea,TL,2,822,Sud-Est,"1,414",28.2347565,45.4114723
933,49769,Topliceni,Comuna,10,109,Buzău,BZ,2,822,Sud-Est,"4,381",26.9678993,45.4423943
934,51500,Berzovia,Comuna,11,118,Caraș-Severin,CS,5,859,Vest,"3,994",21.5808563,45.3961716
935,134096,Măneciu,Comuna,29,298,Prahova,PH,3,831,Sud,"10,761",25.9485874,45.4047127
936,16329,Dîmbovicioara,Comuna,3,38,Argeș,AG,3,831,Sud,935,25.2228546,45.4535713
937,50228,Vintilă Vodă,Comuna,10,109,Buzău,BZ,2,822,Sud-Est,"3,051",26.7298470,45.4565582
938,40303,Predeal,Oras,8,83,Brașov,BV,7,877,Centru,"5,261",25.5891876,45.4970398
939,175206,Bălești,Comuna,39,396,Vrancea,VN,2,822,Sud-Est,"2,039",27.2410088,45.4718628
940,49233,Sărulești,Comuna,10,109,Buzău,BZ,2,822,Sud-Est,"1,380",26.7749043,45.4880600
941,157273,Giera,Comuna,35,350,Timiș,TM,5,859,Vest,"1,446",20.9680538,45.4140434
942,87246,Bănița,Comuna,20,207,Hunedoara,HD,5,859,Vest,"1,150",23.2638626,45.4687080
943,53247,Măureni,Comuna,11,118,Caraș-Severin,CS,5,859,Vest,"2,936",21.5084343,45.4347687
944,159366,Birda,Comuna,35,350,Timiș,TM,5,859,Vest,"2,074",21.3397331,45.4244690
945,157086,Gătaia,Oras,35,350,Timiș,TM,5,859,Vest,"6,468",21.4068127,45.3898811
946,54699,Zorlențu Mare,Comuna,11,118,Caraș-Severin,CS,5,859,Vest,869,21.9728546,45.4640694
947,45673,Buda,Comuna,10,109,Buzău,BZ,2,822,Sud-Est,"3,074",26.8946095,45.4934464
948,41471,Moieciu,Comuna,8,83,Brașov,BV,7,877,Centru,"4,667",25.3163452,45.4706154
949,91054,Sarmizegetusa,Comuna,20,207,Hunedoara,HD,5,859,Vest,"1,191",22.7423325,45.4905167
950,40633,Bran,Comuna,8,83,Brașov,BV,7,877,Centru,"5,329",25.3905258,45.4847908
951,159400,Ghilad,Comuna,35,350,Timiș,TM,5,859,Vest,"2,040",21.1019211,45.4574699
952,50068,Valea Salciei,Comuna,10,109,Buzău,BZ,2,822,Sud-Est,763,26.8161201,45.5075607
953,176613,Măicănești,Comuna,39,396,Vrancea,VN,2,822,Sud-Est,"4,742",27.4376526,45.4799271
954,168755,Boișoara,Comuna,38,387,Vâlcea,VL,4,840,Sud-Vest,"1,328",24.4139423,45.4773712
955,177600,Sihlea,Comuna,39,396,Vrancea,VN,2,822,Sud-Est,"5,364",27.1675301,45.4850807
956,53639,Ramna,Comuna,11,118,Caraș-Severin,CS,5,859,Vest,"1,594",21.7093697,45.4662437
957,76585,Independența,Comuna,17,172,Galați,GL,2,822,Sud-Est,"4,763",27.7604618,45.4780426
958,175439,Bordești,Comuna,39,396,Vrancea,VN,2,822,Sud-Est,"1,792",27.0281200,45.5496712
959,159339,Voiteg,Comuna,35,350,Timiș,TM,5,859,Vest,"2,377",21.2747059,45.4745331
960,172153,Perișani,Comuna,38,387,Vâlcea,VL,4,840,Sud-Vest,"2,301",24.4417686,45.3639641
961,18554,Sălătrucu,Comuna,3,38,Argeș,AG,3,831,Sud,"2,223",24.5255184,45.3913956
962,18527,Rucăr,Comuna,3,38,Argeș,AG,3,831,Sud,"6,076",25.0144367,45.5423317
963,54617,Zăvoi,Comuna,11,118,Caraș-Severin,CS,5,859,Vest,"4,166",22.5477390,45.3829613
964,53210,Marga,Comuna,11,118,Caraș-Severin,CS,5,859,Vest,"1,118",22.4838772,45.5078697
965,175938,Dumbrăveni,Comuna,39,396,Vrancea,VN,2,822,Sud-Est,"4,457",27.0971298,45.5478058
966,177986,Tătăranu,Comuna,39,396,Vrancea,VN,2,822,Sud-Est,"4,685",27.3093014,45.5317268
967,14049,Arefu,Comuna,3,38,Argeș,AG,3,831,Sud,"2,481",24.6361122,45.4608879
968,17771,Nucșoara,Comuna,3,38,Argeș,AG,3,831,Sud,"1,465",24.8214989,45.4746399
969,51332,Băuțar,Comuna,11,118,Caraș-Severin,CS,5,859,Vest,"2,617",22.6148300,45.4918671
970,51207,Oțelu Roșu,Oras,11,118,Caraș-Severin,CS,5,859,Vest,"12,807",22.3738537,45.5285950
971,178901,Popești,Comuna,39,396,Vrancea,VN,2,822,Sud-Est,"3,018",27.0751877,45.5894775
972,91624,Totești,Comuna,20,207,Hunedoara,HD,5,859,Vest,"1,896",22.8806019,45.5683784
973,157004,Foeni,Comuna,35,350,Timiș,TM,5,859,Vest,"1,814",20.8600712,45.4928741
974,76996,Piscu,Comuna,17,172,Galați,GL,2,822,Sud-Est,"4,955",27.7194157,45.5323219
975,52936,Glimboca,Comuna,11,118,Caraș-Severin,CS,5,859,Vest,"1,883",22.3226509,45.5223083
976,45245,Bisoca,Comuna,10,109,Buzău,BZ,2,822,Sud-Est,"2,774",26.6967621,45.5548477
977,176301,Gugești,Comuna,39,396,Vrancea,VN,2,822,Sud-Est,"6,772",27.1697102,45.5521812
978,159035,Tormac,Comuna,35,350,Timiș,TM,5,859,Vest,"2,865",21.4561596,45.5197105
979,53372,Obreja,Comuna,11,118,Caraș-Severin,CS,5,859,Vest,"3,396",22.2325935,45.4841385
980,54537,Vermeș,Comuna,11,118,Caraș-Severin,CS,5,859,Vest,"1,562",21.6488228,45.5273438
981,91232,Sântămăria-Orlea,Comuna,20,207,Hunedoara,HD,5,859,Vest,"3,176",23.0223293,45.5807343
982,89348,Densuș,Comuna,20,207,Hunedoara,HD,5,859,Vest,"1,505",22.7210693,45.5643044
983,47630,Mînzălești,Comuna,10,109,Buzău,BZ,2,822,Sud-Est,"2,505",26.6314964,45.5069008
984,76353,Fundeni,Comuna,17,172,Galați,GL,2,822,Sud-Est,"3,959",27.5697918,45.5706825
985,47186,Lopătari,Comuna,10,109,Buzău,BZ,2,822,Sud-Est,"4,037",26.5558376,45.5338821
986,176551,Jitia,Comuna,39,396,Vrancea,VN,2,822,Sud-Est,"1,666",26.7660465,45.5861244
987,157424,Jebel,Comuna,35,350,Timiș,TM,5,859,Vest,"3,582",21.2513733,45.5415764
988,75098,Galați,Municipiu resedinta de judet,17,172,Galați,GL,2,822,Sud-Est,"305,805",28.0799618,45.4884186
989,176855,Nănești,Comuna,39,396,Vrancea,VN,2,822,Sud-Est,"2,456",27.4964485,45.5655785
990,40492,Zărnești,Oras,8,83,Brașov,BV,7,877,Centru,"26,710",25.2382526,45.5850563
991,42183,Vama Buzăului,Comuna,8,83,Brașov,BV,7,877,Centru,"3,504",26.0091248,45.5727615
992,146021,Boița,Comuna,32,323,Sibiu,SB,7,877,Centru,"1,662",24.1831093,45.5469589
993,178938,Gologanu,Comuna,39,396,Vrancea,VN,2,822,Sud-Est,"3,089",27.3069649,45.6066093
994,40900,Cristian,Comuna,8,83,Brașov,BV,7,877,Centru,"4,923",25.4932938,45.6279182
995,145382,Rîu Sadului,Comuna,32,323,Sibiu,SB,7,877,Centru,629,24.0275764,45.6248856
996,156357,Ciacova,Oras,35,350,Timiș,TM,5,859,Vest,"5,387",21.1197186,45.5296478
997,157923,Nițchidorf,Comuna,35,350,Timiș,TM,5,859,Vest,"1,689",21.5330219,45.5745163
998,145934,Turnu Roșu,Comuna,32,323,Sibiu,SB,7,877,Centru,"2,418",24.3148346,45.6084404
999,41621,Poiana Mărului,Comuna,8,83,Brașov,BV,7,877,Centru,"3,380",25.3099327,45.6267853
"1,000",90725,Răchitova,Comuna,20,207,Hunedoara,HD,5,859,Vest,"1,335",22.7595177,45.6174393
"1,001",40438,Săcele,"Municipiu, altul decat resedinta de judet",8,83,Brașov,BV,7,877,Centru,"35,799",25.7925930,45.5249252
"1,002",157317,Giulvăz,Comuna,35,350,Timiș,TM,5,859,Vest,"3,203",20.9650917,45.5299072
"1,003",42398,Vulcan,Comuna,8,83,Brașov,BV,7,877,Centru,"4,994",25.4060307,45.6285591
"1,004",178475,Vintileasca,Comuna,39,396,Vrancea,VN,2,822,Sud-Est,"2,076",26.7053471,45.6313858
"1,005",177726,Slobozia Ciorăști,Comuna,39,396,Vrancea,VN,2,822,Sud-Est,"2,087",27.2062435,45.6012230
"1,006",42003,Tărlungeni,Comuna,8,83,Brașov,BV,7,877,Centru,"9,083",25.8191509,45.6071815
"1,007",178821,Vulturu,Comuna,39,396,Vrancea,VN,2,822,Sud-Est,"8,675",27.4165783,45.5978508
"1,008",175509,Chiojdeni,Comuna,39,396,Vrancea,VN,2,822,Sud-Est,"2,509",26.8306293,45.5623474
"1,009",40688,Budila,Comuna,8,83,Brașov,BV,7,877,Centru,"4,535",25.8618355,45.6463509
"1,010",176748,Milcovul,Comuna,39,396,Vrancea,VN,2,822,Sud-Est,"3,608",27.2494011,45.6438026
"1,011",53728,Rusca Montană,Comuna,11,118,Caraș-Severin,CS,5,859,Vest,"1,969",22.4101772,45.6129951
"1,012",145827,Tălmaciu,Oras,32,323,Sibiu,SB,7,877,Centru,"8,132",24.1838570,45.6155319
"1,013",174824,Golești,Comuna,39,396,Vrancea,VN,2,822,Sud-Est,"4,452",27.1622086,45.6590919
"1,014",157497,Liebling,Comuna,35,350,Timiș,TM,5,859,Vest,"4,043",21.3369503,45.5811424
"1,015",145355,Racovița,Comuna,32,323,Sibiu,SB,7,877,Centru,"2,952",24.3761215,45.6472282
"1,016",159525,Otelec,Comuna,35,350,Timiș,TM,5,859,Vest,"1,840",20.8620720,45.5748596
"1,017",145471,Sadu,Comuna,32,323,Sibiu,SB,7,877,Centru,"2,524",24.1471348,45.6364899
"1,018",42472,Holbav,Comuna,8,83,Brașov,BV,7,877,Centru,"1,422",25.3661709,45.6784058
"1,019",157031,Gavojdia,Comuna,35,350,Timiș,TM,5,859,Vest,"2,943",22.0121059,45.6135597
"1,020",159446,Pădureni,Comuna,35,350,Timiș,TM,5,859,Vest,"1,726",21.2378902,45.6185760
"1,021",90119,Lunca Cernii de Jos,Comuna,20,207,Hunedoara,HD,5,859,Vest,909,22.5641937,45.6427956
"1,022",156623,Darova,Comuna,35,350,Timiș,TM,5,859,Vest,"3,322",21.7546062,45.6112709
"1,023",88644,Bretea Română,Comuna,20,207,Hunedoara,HD,5,859,Vest,"2,854",23.0176525,45.6567421
"1,024",40214,Ghimbav,Oras,8,83,Brașov,BV,7,877,Centru,"5,901",25.5170727,45.6823997
"1,025",156534,Criciova,Comuna,35,350,Timiș,TM,5,859,Vest,"1,629",22.0819778,45.6236382
"1,026",76969,Pechea,Comuna,17,172,Galați,GL,2,822,Sud-Est,"11,435",27.7924442,45.6501617
"1,027",42058,Teliu,Comuna,8,83,Brașov,BV,7,877,Centru,"4,412",25.8932648,45.6870613
"1,028",175732,Cîrligele,Comuna,39,396,Vrancea,VN,2,822,Sud-Est,"2,979",27.0593987,45.6845284
"1,029",157898,Nădrag,Comuna,35,350,Timiș,TM,5,859,Vest,"2,946",22.2122974,45.6478996
"1,030",42449,Șinca Nouă,Comuna,8,83,Brașov,BV,7,877,Centru,"1,610",25.2715340,45.6910858
"1,031",40465,Victoria,Oras,8,83,Brașov,BV,7,877,Centru,"8,907",24.7018185,45.7303734
"1,032",177263,Poiana Cristei,Comuna,39,396,Vrancea,VN,2,822,Sud-Est,"2,784",26.9456940,45.6984253
"1,033",155403,Buziaș,Oras,35,350,Timiș,TM,5,859,Vest,"8,376",21.5986004,45.6315308
"1,034",41925,Sînpetru,Comuna,8,83,Brașov,BV,7,877,Centru,"5,426",25.6373520,45.7126656
"1,035",86936,Teliucu Inferior,Comuna,20,207,Hunedoara,HD,5,859,Vest,"2,561",22.8711948,45.6874123
"1,036",89026,Bunila,Comuna,20,207,Hunedoara,HD,5,859,Vest,323,22.6627045,45.6918449
"1,037",158449,Sacoșu Turcesc,Comuna,35,350,Timiș,TM,5,859,Vest,"3,164",21.3911343,45.6360054
"1,038",63580,Întorsura Buzăului,Oras,14,145,Covasna,CV,7,877,Centru,"9,335",26.0080338,45.6904373
"1,039",176944,Nereju,Comuna,39,396,Vrancea,VN,2,822,Sud-Est,"4,618",26.5966148,45.6684113
"1,040",40198,Brașov,Municipiu resedinta de judet,8,83,Brașov,BV,7,877,Centru,"291,195",25.5866737,45.6277428
"1,041",158065,Peciu Nou,Comuna,35,350,Timiș,TM,5,859,Vest,"5,532",21.0108509,45.6193771
"1,042",63633,Barcani,Comuna,14,145,Covasna,CV,7,877,Centru,"3,990",26.1004848,45.7011299
"1,043",158779,Șag,Comuna,35,350,Timiș,TM,5,859,Vest,"3,308",21.1707306,45.6616402
"1,044",64265,Dobîrlău,Comuna,14,145,Covasna,CV,7,877,Centru,"2,202",25.9014797,45.7309151
"1,045",174780,Cîmpineanca,Comuna,39,396,Vrancea,VN,2,822,Sud-Est,"3,934",27.1385345,45.7134018
"1,046",144535,Cîrțișoara,Comuna,32,323,Sibiu,SB,7,877,Centru,"1,332",24.5913448,45.6720619
"1,047",41346,Lisa,Comuna,8,83,Brașov,BV,7,877,Centru,"1,810",24.8666039,45.6778679
"1,048",41667,Prejmer,Comuna,8,83,Brașov,BV,7,877,Centru,"9,580",25.7755146,45.7197304
"1,049",76558,Grivița,Comuna,17,172,Galați,GL,2,822,Sud-Est,"3,861",27.6634064,45.6986465
"1,050",174744,Focșani,Municipiu resedinta de judet,39,396,Vrancea,VN,2,822,Sud-Est,"95,063",27.2057915,45.6962929
"1,051",90342,Orăștioara de Sus,Comuna,20,207,Hunedoara,HD,5,859,Vest,"2,178",23.2631035,45.6482887
"1,052",178929,Biliești,Comuna,39,396,Vrancea,VN,2,822,Sud-Est,"2,507",27.3376446,45.7181892
"1,053",178689,Vîrteșcoiu,Comuna,39,396,Vrancea,VN,2,822,Sud-Est,"3,523",27.0583858,45.7247810
"1,054",40241,Codlea,"Municipiu, altul decat resedinta de judet",8,83,Brașov,BV,7,877,Centru,"26,163",25.4675770,45.7106133
"1,055",143735,Cisnădie,Oras,32,323,Sibiu,SB,7,877,Centru,"18,920",24.0380077,45.5676231
"1,056",41113,Hârseni,Comuna,8,83,Brașov,BV,7,877,Centru,"2,246",25.0516033,45.6800117
"1,057",156311,Chevereșu Mare,Comuna,35,350,Timiș,TM,5,859,Vest,"2,216",21.4816589,45.6677361
"1,058",63553,Comandău,Comuna,14,145,Covasna,CV,7,877,Centru,"1,010",26.3202991,45.7368622
"1,059",156106,Boldur,Comuna,35,350,Timiș,TM,5,859,Vest,"2,337",21.7515030,45.6920280
"1,060",178965,Spulber,Comuna,39,396,Vrancea,VN,2,822,Sud-Est,"1,345",26.7291794,45.7447433
"1,061",145202,Orlat,Comuna,32,323,Sibiu,SB,7,877,Centru,"3,343",23.8192272,45.6837578
"1,062",63937,Boroșneu Mare,Comuna,14,145,Covasna,CV,7,877,Centru,"3,283",26.0171757,45.8165169
"1,063",155314,Giroc,Comuna,35,350,Timiș,TM,5,859,Vest,"9,948",21.2396832,45.6848030
"1,064",175126,Andreiașu de Jos,Comuna,39,396,Vrancea,VN,2,822,Sud-Est,"1,931",26.8058758,45.7137146
"1,065",42464,Sambata de Sus,Comuna,8,83,Brașov,BV,7,877,Centru,"1,534",24.8127537,45.7003098
"1,066",159142,Uivar,Comuna,35,350,Timiș,TM,5,859,Vest,"3,072",20.8888702,45.6563568
"1,067",41738,Recea,Comuna,8,83,Brașov,BV,7,877,Centru,"3,228",24.9486103,45.6896439
"1,068",155350,Lugoj,"Municipiu, altul decat resedinta de judet",35,350,Timiș,TM,5,859,Vest,"47,969",21.9399796,45.6960068
"1,069",42480,Drăguș,Comuna,8,83,Brașov,BV,7,877,Centru,"1,096",24.7803020,45.7100868
"1,070",76282,Foltești,Comuna,17,172,Galați,GL,2,822,Sud-Est,"3,345",28.0850067,45.7250137
"1,071",64238,Chichiș,Comuna,14,145,Covasna,CV,7,877,Centru,"1,585",25.8085270,45.7748718
"1,072",158243,Racovița,Comuna,35,350,Timiș,TM,5,859,Vest,"2,913",21.6232529,45.7051315
"1,073",144054,Avrig,Oras,32,323,Sibiu,SB,7,877,Centru,"15,729",24.3929176,45.7239227
"1,074",158699,Sînmihaiu Român,Comuna,35,350,Timiș,TM,5,859,Vest,"6,859",21.0800133,45.6992035
"1,075",155957,Bîrna,Comuna,35,350,Timiș,TM,5,859,Vest,"1,572",22.0726013,45.7102242
"1,076",175019,Odobești,Oras,39,396,Vrancea,VN,2,822,Sud-Est,"9,628",27.1281929,45.7584496
"1,077",47079,Gura Teghii,Comuna,10,109,Buzău,BZ,2,822,Sud-Est,"3,510",26.4197731,45.5992126
"1,078",40606,Bod,Comuna,8,83,Brașov,BV,7,877,Centru,"4,671",25.6373367,45.7662811
"1,079",145293,Porumbacu de Jos,Comuna,32,323,Sibiu,SB,7,877,Centru,"3,269",24.5063248,45.6958847
"1,080",87424,Călan,Oras,20,207,Hunedoara,HD,5,859,Vest,"13,401",23.0116940,45.7426414
"1,081",41854,Șinca,Comuna,8,83,Brașov,BV,7,877,Centru,"3,625",25.1690292,45.7285843
"1,082",143487,Cristian,Comuna,32,323,Sibiu,SB,7,877,Centru,"4,163",24.0280800,45.7862587
"1,083",177101,Paltin,Comuna,39,396,Vrancea,VN,2,822,Sud-Est,"2,085",26.7185745,45.7794113
"1,084",65011,Zagon,Comuna,14,145,Covasna,CV,7,877,Centru,"5,399",26.2081318,45.7194405
"1,085",145907,Tilișca,Comuna,32,323,Sibiu,SB,7,877,Centru,"1,514",23.8264198,45.7850533
"1,086",156927,Fîrdea,Comuna,35,350,Timiș,TM,5,859,Vest,"1,770",22.2045555,45.7364807
"1,087",157834,Moșnița Nouă,Comuna,35,350,Timiș,TM,5,859,Vest,"7,019",21.3390617,45.7172241
"1,088",175466,Broșteni,Comuna,39,396,Vrancea,VN,2,822,Sud-Est,"2,266",27.0066986,45.7650261
"1,089",42101,Ucea,Comuna,8,83,Brașov,BV,7,877,Centru,"2,361",24.7103004,45.6640778
"1,090",156473,Coșteiu,Comuna,35,350,Timiș,TM,5,859,Vest,"3,879",21.8869095,45.7500458
"1,091",143959,Arpașu de Jos,Comuna,32,323,Sibiu,SB,7,877,Centru,"2,849",24.6347790,45.7226295
"1,092",159516,Bucovăț,Comuna,35,350,Timiș,TM,5,859,Vest,"1,670",21.4038525,45.7530060
"1,093",144508,Cîrța,Comuna,32,323,Sibiu,SB,7,877,Centru,"1,155",24.5621929,45.7815399
"1,094",145275,Poiana Sibiului,Comuna,32,323,Sibiu,SB,7,877,Centru,"2,281",23.7251778,45.8075981
"1,095",42236,Viștea,Comuna,8,83,Brașov,BV,7,877,Centru,"2,232",24.7485619,45.7369957
"1,096",40928,Dumbrăvița,Comuna,8,83,Brașov,BV,7,877,Centru,"5,179",25.3690643,45.7861938
"1,097",176506,Jariștea,Comuna,39,396,Vrancea,VN,2,822,Sud-Est,"4,228",27.0503426,45.8004112
"1,098",90262,Mărtinești,Comuna,20,207,Hunedoara,HD,5,859,Vest,990,23.1137657,45.7898560
"1,099",156277,Cenei,Comuna,35,350,Timiș,TM,5,859,Vest,"3,123",20.9123096,45.7281418
"1,100",158895,Tomești,Comuna,35,350,Timiș,TM,5,859,Vest,"2,120",22.3437767,45.7316551
"1,101",177003,Nistorești,Comuna,39,396,Vrancea,VN,2,822,Sud-Est,"2,306",26.5494404,45.7924919
"1,102",64639,Ozun,Comuna,14,145,Covasna,CV,7,877,Centru,"4,683",25.8827305,45.7942162
"1,103",159375,Checea,Comuna,35,350,Timiș,TM,5,859,Vest,"2,103",20.8384266,45.7315941
"1,104",145792,Șura Mică,Comuna,32,323,Sibiu,SB,7,877,Centru,"2,983",24.0312061,45.8330536
"1,105",64773,Reci,Comuna,14,145,Covasna,CV,7,877,Centru,"2,293",25.9286633,45.8384819
"1,106",159071,Traian Vuia,Comuna,35,350,Timiș,TM,5,859,Vest,"2,168",22.0431404,45.7858124
"1,107",176891,Năruja,Comuna,39,396,Vrancea,VN,2,822,Sud-Est,"1,932",26.7700443,45.8184509
"1,108",42307,Voila,Comuna,8,83,Brașov,BV,7,877,Centru,"3,160",24.8523064,45.8125877
"1,109",64005,Brateș,Comuna,14,145,Covasna,CV,7,877,Centru,"1,498",26.0797729,45.8392029
"1,110",63526,Covasna,Oras,14,145,Covasna,CV,7,877,Centru,"11,361",26.3188267,45.7880707
"1,111",76718,Măstăcani,Comuna,17,172,Galați,GL,2,822,Sud-Est,"5,050",28.0569649,45.7742844
"1,112",88216,Bătrîna,Comuna,20,207,Hunedoara,HD,5,859,Vest,131,22.5961475,45.8120613
"1,113",176686,Mera,Comuna,39,396,Vrancea,VN,2,822,Sud-Est,"4,186",26.9373341,45.7758980
"1,114",155797,Belinț,Comuna,35,350,Timiș,TM,5,859,Vest,"2,636",21.7706699,45.7568169
"1,115",155289,Ghiroda,Comuna,35,350,Timiș,TM,5,859,Vest,"6,448",21.3173351,45.7885590
"1,116",41417,Mândra,Comuna,8,83,Brașov,BV,7,877,Centru,"2,914",25.0435696,45.8165207
"1,117",155261,Dumbrăvița,Comuna,35,350,Timiș,TM,5,859,Vest,"7,504",21.2418652,45.8059845
"1,118",158136,Pietroasa,Comuna,35,350,Timiș,TM,5,859,Vest,"1,082",22.4397373,45.7795830
"1,119",40278,Făgăraș,"Municipiu, altul decat resedinta de judet",8,83,Brașov,BV,7,877,Centru,"40,368",24.9804955,45.8436356
"1,120",158564,Săcălaz,Comuna,35,350,Timiș,TM,5,859,Vest,"8,420",21.0325775,45.7666740
"1,121",65099,Valea Mare,Comuna,14,145,Covasna,CV,7,877,Centru,"1,167",26.0113506,45.7556152
"1,122",64942,Vîlcele,Comuna,14,145,Covasna,CV,7,877,Centru,"4,961",25.6757126,45.8250504
"1,123",91688,Turdaș,Comuna,20,207,Hunedoara,HD,5,859,Vest,"2,104",23.1334457,45.8479767
"1,124",41818,Șercaia,Comuna,8,83,Brașov,BV,7,877,Centru,"2,906",25.1271744,45.8366470
"1,125",145499,Săliște,Oras,32,323,Sibiu,SB,7,877,Centru,"5,960",23.9179077,45.8114700
"1,126",155243,Timișoara,Municipiu resedinta de judet,35,350,Timiș,TM,5,859,Vest,"333,613",21.2077065,45.7557831
"1,127",158966,Topolovățu Mare,Comuna,35,350,Timiș,TM,5,859,Vest,"2,529",21.6396236,45.7833099
"1,128",41578,Părău,Comuna,8,83,Brașov,BV,7,877,Centru,"2,206",25.2541752,45.8415604
"1,129",64390,Hăghig,Comuna,14,145,Covasna,CV,7,877,Centru,"2,305",25.6162128,45.8621101
"1,130",87638,Orăștie,"Municipiu, altul decat resedinta de judet",20,207,Hunedoara,HD,5,859,Vest,"22,740",23.2090683,45.8454704
"1,131",63394,Sfîntu Gheorghe,Municipiu resedinta de judet,14,145,Covasna,CV,7,877,Centru,"65,362",25.7780704,45.8570328
"1,132",156767,Dumbrava,Comuna,35,350,Timiș,TM,5,859,Vest,"2,781",22.1431541,45.7983284
"1,133",86749,Cârjiți,Comuna,20,207,Hunedoara,HD,5,859,Vest,661,22.8356552,45.8455086
"1,134",145408,Roșia,Comuna,32,323,Sibiu,SB,7,877,Centru,"5,687",24.3091259,45.8140297
"1,135",4482,Gîrbova,Comuna,1,10,Alba,AB,7,877,Centru,"2,128",23.7014675,45.8561897
"1,136",156589,Curtea,Comuna,35,350,Timiș,TM,5,859,Vest,"1,287",22.3363132,45.8469925
"1,137",144893,Marpod,Comuna,32,323,Sibiu,SB,7,877,Centru,934,24.5114403,45.8719177
"1,138",155546,Balinț,Comuna,35,350,Timiș,TM,5,859,Vest,"1,593",21.8674393,45.8251572
"1,139",175368,Bolotești,Comuna,39,396,Vrancea,VN,2,822,Sud-Est,"4,820",27.0065212,45.8602982
"1,140",7099,Săsciori,Comuna,1,10,Alba,AB,7,877,Centru,"6,387",23.5629158,45.8214493
